{"type":"FeatureCollection", "features": [
{"type":"Feature","geometry":null,"properties":{"State":"Jubaland","Region":"Lower Juba","District":"Afmadow","Section":"Dhobley","IDP Name":"Jiroole","Project":"27 ELN","Site Type":"Level 3","Latitude":"0.396099","Longitude":"41.01463","# Households(Hha)":231,"# Individuals":1386}},
{"type":"Feature","geometry":null,"properties":{"State":"Jubaland","Region":"Lower Juba","District":"Afmadow","Section":"Dhobley","IDP Name":"Barwaqo","Project":"27 ELN","Site Type":"Level 1","Latitude":"0.2511","Longitude":"41.08","# Households(Hha)":211,"# Individuals":1266}},
{"type":"Feature","geometry":null,"properties":{"State":"Jubaland","Region":"Lower Juba","District":"Afmadow","Section":"Dhobley","IDP Name":"Danwadag","Project":"27 ELN","Site Type":"Level 1","Latitude":"0.389396","Longitude":"41.000541","# Households(Hha)":2829,"# Individuals":16974}},
{"type":"Feature","geometry":null,"properties":{"State":"Jubaland","Region":"Lower Juba","District":"Afmadow","Section":"Dhobley","IDP Name":"Hagar","Project":"27 ELN","Site Type":"Level 1","Latitude":"0.397445","Longitude":"41.012203","# Households(Hha)":710,"# Individuals":4260}},
{"type":"Feature","geometry":null,"properties":{"State":"Jubaland","Region":"Lower Juba","District":"Afmadow","Section":"Dhobley","IDP Name":"Jimo","Project":"27 ELN","Site Type":"Level 1","Latitude":"0.252613","Longitude":"41.138","# Households(Hha)":352,"# Individuals":2112}},
{"type":"Feature","geometry":null,"properties":{"State":"Jubaland","Region":"Lower Juba","District":"Afmadow","Section":"Dhobley","IDP Name":"Kafi","Project":"27 ELN","Site Type":"Level 1","Latitude":"0.240728","Longitude":"41.003918","# Households(Hha)":226,"# Individuals":1356}},
{"type":"Feature","geometry":null,"properties":{"State":"Jubaland","Region":"Lower Juba","District":"Afmadow","Section":"Dhobley","IDP Name":"Tawakal ","Project":"27 ELN","Site Type":"Level 1","Latitude":" 0. 234203 ","Longitude":"41.002356","# Households(Hha)":450,"# Individuals":2700}},
{"type":"Feature","geometry":null,"properties":{"State":"Jubaland","Region":"Lower Juba","District":"Afmadow","Section":"Dhobley","IDP Name":"Wadajir","Project":"27 ELN","Site Type":"Level 1","Latitude":"0.510759","Longitude":"41.011856","# Households(Hha)":1020,"# Individuals":6120}},
{"type":"Feature","geometry":null,"properties":{"State":"Jubaland","Region":"Gedo","District":"Baardheere","Section":"Baardheere","IDP Name":"Al Aamin","Project":"27 ELN","Site Type":"Level 3","Latitude":"2.3583578","Longitude":"42.269806","# Households(Hha)":219,"# Individuals":1314}},
{"type":"Feature","geometry":null,"properties":{"State":"Jubaland","Region":"Gedo","District":"Baardheere","Section":"Baardheere","IDP Name":"Camp Shabeel","Project":"27 ELN","Site Type":"Level 3","Latitude":"2.3434265","Longitude":"42.3013032","# Households(Hha)":632,"# Individuals":3792}},
{"type":"Feature","geometry":null,"properties":{"State":"Jubaland","Region":"Gedo","District":"Baardheere","Section":"Baardheere","IDP Name":"Kulmiye","Project":"27 ELN","Site Type":"Level 3","Latitude":"2.3266822","Longitude":"42.2987015","# Households(Hha)":180,"# Individuals":1080}},
{"type":"Feature","geometry":null,"properties":{"State":"Jubaland","Region":"Gedo","District":"Baardheere","Section":"Baardheere","IDP Name":"Bula Esan Centre","Project":"27 ELN","Site Type":"Level 2","Latitude":"2.3556537","Longitude":"42.2871469","# Households(Hha)":150,"# Individuals":900}},
{"type":"Feature","geometry":null,"properties":{"State":"Jubaland","Region":"Gedo","District":"Baardheere","Section":"Baardheere","IDP Name":"Bulo Geedi","Project":"27 ELN","Site Type":"Level 2","Latitude":"2.3197958","Longitude":"42.2768822","# Households(Hha)":75,"# Individuals":450}},
{"type":"Feature","geometry":null,"properties":{"State":"Jubaland","Region":"Gedo","District":"Baardheere","Section":"Baardheere","IDP Name":"Jirih","Project":"27 ELN","Site Type":"Level 2","Latitude":"2.35924","Longitude":"42.276075","# Households(Hha)":250,"# Individuals":1500}},
{"type":"Feature","geometry":null,"properties":{"State":"Jubaland","Region":"Gedo","District":"Baardheere","Section":"Baardheere","IDP Name":"Horseed","Project":"27 ELN","Site Type":"Level 2","Latitude":"2.3396408","Longitude":"42.2720478","# Households(Hha)":280,"# Individuals":1680}},
{"type":"Feature","geometry":null,"properties":{"State":"Jubaland","Region":"Gedo","District":"Baardheere","Section":"Baardheere","IDP Name":"Liban","Project":"27 ELN","Site Type":"Level 2","Latitude":"2.3249776","Longitude":"42.289047","# Households(Hha)":235,"# Individuals":1410}},
{"type":"Feature","geometry":null,"properties":{"State":"Jubaland","Region":"Gedo","District":"Baardheere","Section":"Baardheere","IDP Name":"Bakal","Project":"27 ELN","Site Type":"Level 2","Latitude":"2.352028","Longitude":"42.2664382","# Households(Hha)":300,"# Individuals":1800}},
{"type":"Feature","geometry":null,"properties":{"State":"Jubaland","Region":"Gedo","District":"Baardheere","Section":"Baardheere","IDP Name":"Gadude","Project":"27 ELN","Site Type":"Level 2","Latitude":"2.3469916","Longitude":"42.2993523","# Households(Hha)":486,"# Individuals":2916}},
{"type":"Feature","geometry":null,"properties":{"State":"Jubaland","Region":"Gedo","District":"Baardheere","Section":"Baardheere","IDP Name":"Habaal Adey","Project":"27 ELN","Site Type":"Level 2","Latitude":"2.3319533","Longitude":"42.2983967","# Households(Hha)":450,"# Individuals":2700}},
{"type":"Feature","geometry":null,"properties":{"State":"Jubaland","Region":"Gedo","District":"Baardheere","Section":"Baardheere","IDP Name":"Iftin IDP","Project":"27 ELN","Site Type":"Level 2","Latitude":"2.3475454","Longitude":"42.3069539","# Households(Hha)":2558,"# Individuals":15348}},
{"type":"Feature","geometry":null,"properties":{"State":"Jubaland","Region":"Gedo","District":"Baardheere","Section":"Baardheere","IDP Name":"Albaraka","Project":"27 ELN","Site Type":"Level 2","Latitude":"2.3519872","Longitude":"42.3016761","# Households(Hha)":475,"# Individuals":2850}},
{"type":"Feature","geometry":null,"properties":{"State":"Jubaland","Region":"Gedo","District":"Baardheere","Section":"Baardheere","IDP Name":"Dulmidiid","Project":"27 FMM","Site Type":"Batch 2","Latitude":"2.3361176","Longitude":"42.2993694","# Households(Hha)":70,"# Individuals":420}},
{"type":"Feature","geometry":null,"properties":{"State":"Jubaland","Region":"Gedo","District":"Baardheere","Section":"Baardheere","IDP Name":"Gargaar","Project":"27 FMM","Site Type":"Batch 2","Latitude":"2.3506467","Longitude":"42.29594","# Households(Hha)":240,"# Individuals":1440}},
{"type":"Feature","geometry":null,"properties":{"State":"Jubaland","Region":"Gedo","District":"Baardheere","Section":"Baardheere","IDP Name":"Horyaal","Project":"27 FMM","Site Type":"Batch 2","Latitude":"2.3499727","Longitude":"42.2984964","# Households(Hha)":245,"# Individuals":1470}},
{"type":"Feature","geometry":null,"properties":{"State":"Jubaland","Region":"Gedo","District":"Baardheere","Section":"Baardheere","IDP Name":"Warsans","Project":"27 FMM","Site Type":"Batch 2","Latitude":"2.3135303","Longitude":"42.2776348","# Households(Hha)":90,"# Individuals":540}},
{"type":"Feature","geometry":null,"properties":{"State":"Jubaland","Region":"Gedo","District":"Baardheere","Section":"Baardheere","IDP Name":"Baaleey","Project":"27 FMM","Site Type":"Batch 2","Latitude":"2.3276942","Longitude":"42.2922578","# Households(Hha)":120,"# Individuals":720}},
{"type":"Feature","geometry":null,"properties":{"State":"Jubaland","Region":"Gedo","District":"Baardheere","Section":"Baardheere","IDP Name":"Kulan","Project":"27 FMM","Site Type":"Batch 2","Latitude":"2.3282631","Longitude":"42.2964427","# Households(Hha)":62,"# Individuals":372}},
{"type":"Feature","geometry":null,"properties":{"State":"Jubaland","Region":"Gedo","District":"Baardheere","Section":"Baardheere","IDP Name":"Najax","Project":"27 FMM","Site Type":"Batch 2","Latitude":"2.3439795","Longitude":"42.2665832","# Households(Hha)":135,"# Individuals":810}},
{"type":"Feature","geometry":null,"properties":{"State":"Jubaland","Region":"Lower Juba","District":"Badhadhe","Section":"Kamboni","IDP Name":"Odaw","Project":"27 ELN","Site Type":"Level 1","Latitude":"1.35597012","Longitude":"41.36425221","# Households(Hha)":400,"# Individuals":1200}},
{"type":"Feature","geometry":null,"properties":{"State":"Jubaland","Region":"Lower Juba","District":"Badhadhe","Section":"Kamboni","IDP Name":"Warseer","Project":"27 ELN","Site Type":"Level 1","Latitude":"1.381617252","Longitude":"41.34301418","# Households(Hha)":600,"# Individuals":3600}},
{"type":"Feature","geometry":null,"properties":{"State":"Jubaland","Region":"Lower Juba","District":"Badhadhe","Section":"Kudha","IDP Name":"Yora","Project":"27 ELN","Site Type":"Level 1","Latitude":"-102,507","Longitude":"41.57'4304808","# Households(Hha)":800,"# Individuals":4800}},
{"type":"Feature","geometry":null,"properties":{"State":"Jubaland","Region":"Lower Juba","District":"Badhadhe","Section":"Kulbiya","IDP Name":"Bulla Banan","Project":"27 ELN","Site Type":"Level 1","Latitude":"-1.149212401","Longitude":"41.22919399","# Households(Hha)":60,"# Individuals":480}},
{"type":"Feature","geometry":null,"properties":{"State":"Jubaland","Region":"Lower Juba","District":"Badhadhe","Section":"Kulbiya","IDP Name":"Fareey","Project":"27 ELN","Site Type":"Level 1","Latitude":"-1.149212401","Longitude":"41.22919399","# Households(Hha)":50,"# Individuals":300}},
{"type":"Feature","geometry":null,"properties":{"State":"Jubaland","Region":"Lower Juba","District":"Badhadhe","Section":"Kulbiya","IDP Name":"Qooqan","Project":"27 ELN","Site Type":"Level 1","Latitude":"-1.140094735","Longitude":"41.2244324","# Households(Hha)":55,"# Individuals":385}},
{"type":"Feature","geometry":null,"properties":{"State":"Jubaland","Region":"Gedo","District":"Ceel Waaq","Section":"Elwaq","IDP Name":"A1","Project":"27 ELN","Site Type":"Level 1","Latitude":"2.7740122","Longitude":"41.250578","# Households(Hha)":520,"# Individuals":2672}},
{"type":"Feature","geometry":null,"properties":{"State":"Jubaland","Region":"Gedo","District":"Ceel Waaq","Section":"Elwaq","IDP Name":"Bardera","Project":"27 ELN","Site Type":"Level 1","Latitude":"2.8091031","Longitude":"41.0189477","# Households(Hha)":263,"# Individuals":1604}},
{"type":"Feature","geometry":null,"properties":{"State":"Jubaland","Region":"Gedo","District":"Ceel Waaq","Section":"Elwaq","IDP Name":"Bula garas","Project":"27 ELN","Site Type":"Level 1","Latitude":"2.7831521","Longitude":"40.9990776","# Households(Hha)":520,"# Individuals":2672}},
{"type":"Feature","geometry":null,"properties":{"State":"Jubaland","Region":"Gedo","District":"Ceel Waaq","Section":"Elwaq","IDP Name":"Caracase ","Project":"27 ELN","Site Type":"Level 1","Latitude":"2.8035425","Longitude":"41.0314981","# Households(Hha)":155,"# Individuals":853}},
{"type":"Feature","geometry":null,"properties":{"State":"Jubaland","Region":"Gedo","District":"Ceel Waaq","Section":"Elwaq","IDP Name":"Dudun Dheer","Project":"27 ELN","Site Type":"Level 1","Latitude":"2.7788114","Longitude":"41.0261927","# Households(Hha)":145,"# Individuals":841}},
{"type":"Feature","geometry":null,"properties":{"State":"Jubaland","Region":"Gedo","District":"Ceel Waaq","Section":"Elwaq","IDP Name":"Qoryole","Project":"27 ELN","Site Type":"Level 1","Latitude":"2.7919695","Longitude":"40.9962451","# Households(Hha)":250,"# Individuals":1475}},
{"type":"Feature","geometry":null,"properties":{"State":"Jubaland","Region":"Gedo","District":"Ceel Waaq","Section":"Elwaq","IDP Name":"Malkhida","Project":"27 FMM","Site Type":"Batch 2","Latitude":"2.81183","Longitude":"41.00749","# Households(Hha)":230,"# Individuals":1380}},
{"type":"Feature","geometry":null,"properties":{"State":"Jubaland","Region":"Gedo","District":"Ceel Waaq","Section":"Elwaq","IDP Name":"Dirhara","Project":"27 FMM","Site Type":"Batch 2","Latitude":"2.77851","Longitude":"41.03493","# Households(Hha)":218,"# Individuals":1308}},
{"type":"Feature","geometry":null,"properties":{"State":"Jubaland","Region":"Gedo","District":"Ceel Waaq","Section":"Elwaq","IDP Name":"Bula-Gambia","Project":"27 FMM","Site Type":"Batch 2","Latitude":"2.792029","Longitude":"41.00247","# Households(Hha)":180,"# Individuals":1080}},
{"type":"Feature","geometry":null,"properties":{"State":"Jubaland","Region":"Gedo","District":"Garbahaarey","Section":"Garbahaarey","IDP Name":"Badbado","Project":"27 ELN","Site Type":"Level 3","Latitude":"","Longitude":"","# Households(Hha)":160,"# Individuals":960}},
{"type":"Feature","geometry":null,"properties":{"State":"Jubaland","Region":"Gedo","District":"Garbahaarey","Section":"Garbahaarey","IDP Name":"Harta-cad","Project":"27 ELN","Site Type":"Level 3","Latitude":"","Longitude":"","# Households(Hha)":127,"# Individuals":750}},
{"type":"Feature","geometry":null,"properties":{"State":"Jubaland","Region":"Gedo","District":"Garbahaarey","Section":"Garbahaarey","IDP Name":"Dhure","Project":"27 ELN","Site Type":"Level 2","Latitude":"3.3349813","Longitude":"42.2319884","# Households(Hha)":310,"# Individuals":1622}},
{"type":"Feature","geometry":null,"properties":{"State":"Jubaland","Region":"Gedo","District":"Garbahaarey","Section":"Garbahaarey","IDP Name":"Taftataag","Project":"27 ELN","Site Type":"Level 2","Latitude":"3.3392352","Longitude":"42.210893","# Households(Hha)":500,"# Individuals":3200}},
{"type":"Feature","geometry":null,"properties":{"State":"Jubaland","Region":"Gedo","District":"Garbahaarey","Section":"Garbahaarey","IDP Name":"Towfiq","Project":"27 ELN","Site Type":"Level 2","Latitude":"3.3392474","Longitude":"42.21619","# Households(Hha)":410,"# Individuals":2450}},
{"type":"Feature","geometry":null,"properties":{"State":"Jubaland","Region":"Gedo","District":"Garbahaarey","Section":"Garbahaarey","IDP Name":"Waberi","Project":"27 ELN","Site Type":"Level 2","Latitude":"3.3294703","Longitude":"42.2361551","# Households(Hha)":340,"# Individuals":2050}},
{"type":"Feature","geometry":null,"properties":{"State":"Jubaland","Region":"Gedo","District":"Garbahaarey","Section":"Garbahaarey","IDP Name":"Warsan","Project":"27 ELN","Site Type":"Level 2","Latitude":"3.3406092","Longitude":"42.2183019","# Households(Hha)":400,"# Individuals":2750}},
{"type":"Feature","geometry":null,"properties":{"State":"Jubaland","Region":"Gedo","District":"Garbahaarey","Section":"Garbahaarey","IDP Name":"Xaashi Weer ","Project":"27 ELN","Site Type":"Level 2","Latitude":"3.3275094","Longitude":"42.2031698","# Households(Hha)":480,"# Individuals":3140}},
{"type":"Feature","geometry":null,"properties":{"State":"Jubaland","Region":"Lower Juba","District":"Jamaame","Section":"Wirkoy","IDP Name":"Farwaamo","Project":"27 ELN","Site Type":"Level 1","Latitude":"","Longitude":"","# Households(Hha)":600,"# Individuals":3600}},
{"type":"Feature","geometry":null,"properties":{"State":"Jubaland","Region":"Lower Juba","District":"Kismaayo","Section":"Galbeet","IDP Name":"Abaq Banbow","Project":"27 FMM","Site Type":"Batch 1","Latitude":"-0.3600397","Longitude":"42.5296928","# Households(Hha)":121,"# Individuals":724}},
{"type":"Feature","geometry":null,"properties":{"State":"Jubaland","Region":"Lower Juba","District":"Kismaayo","Section":"Galbeet","IDP Name":"Alla suge","Project":"27 FMM","Site Type":"Batch 1","Latitude":"-0.3572205","Longitude":"42.5315637","# Households(Hha)":52,"# Individuals":312}},
{"type":"Feature","geometry":null,"properties":{"State":"Jubaland","Region":"Lower Juba","District":"Kismaayo","Section":"Galbeet","IDP Name":"Alle Aamin","Project":"27 ELN","Site Type":"Level 3","Latitude":"-0.3596871","Longitude":"42.5339083","# Households(Hha)":82,"# Individuals":502}},
{"type":"Feature","geometry":null,"properties":{"State":"Jubaland","Region":"Lower Juba","District":"Kismaayo","Section":"Galbeet","IDP Name":"Alle Qabe","Project":"27 ELN","Site Type":"Level 3","Latitude":"-0.3562502","Longitude":"42.5303509","# Households(Hha)":108,"# Individuals":664}},
{"type":"Feature","geometry":null,"properties":{"State":"Jubaland","Region":"Lower Juba","District":"Kismaayo","Section":"Galbeet","IDP Name":"Amuudiyow","Project":"27 FMM","Site Type":"Batch 1","Latitude":"-0.3641983","Longitude":"42.5273561","# Households(Hha)":85,"# Individuals":510}},
{"type":"Feature","geometry":null,"properties":{"State":"Jubaland","Region":"Lower Juba","District":"Kismaayo","Section":"Galbeet","IDP Name":"Anjeel","Project":"27 ELN","Site Type":"Level 3","Latitude":"-0.349431","Longitude":"42.5260894","# Households(Hha)":75,"# Individuals":450}},
{"type":"Feature","geometry":null,"properties":{"State":"Jubaland","Region":"Lower Juba","District":"Kismaayo","Section":"Galbeet","IDP Name":"Badbaado 1","Project":"27 ELN","Site Type":"Level 2","Latitude":"-0.3432171","Longitude":"42.5251071","# Households(Hha)":110,"# Individuals":660}},
{"type":"Feature","geometry":null,"properties":{"State":"Jubaland","Region":"Lower Juba","District":"Kismaayo","Section":"Galbeet","IDP Name":"Badbaado 2","Project":"27 ELN","Site Type":"Level 3","Latitude":"-0.3595053","Longitude":"42.5254165","# Households(Hha)":323,"# Individuals":1938}},
{"type":"Feature","geometry":null,"properties":{"State":"Jubaland","Region":"Lower Juba","District":"Kismaayo","Section":"Galbeet","IDP Name":"Bangeni","Project":"27 FMM","Site Type":"Batch 1","Latitude":"-0.3479659","Longitude":"42.5304101","# Households(Hha)":72,"# Individuals":432}},
{"type":"Feature","geometry":null,"properties":{"State":"Jubaland","Region":"Lower Juba","District":"Kismaayo","Section":"Galbeet","IDP Name":"Bariga Dhahe","Project":"27 ELN","Site Type":"Level 3","Latitude":"-0.3668792","Longitude":"42.528451","# Households(Hha)":100,"# Individuals":617}},
{"type":"Feature","geometry":null,"properties":{"State":"Jubaland","Region":"Lower Juba","District":"Kismaayo","Section":"Kismayo West","IDP Name":"Barkadda Sharefada","Project":"27 ELN","Site Type":"Level 2","Latitude":"-0.4106399","Longitude":"42.4220151","# Households(Hha)":287,"# Individuals":1722}},
{"type":"Feature","geometry":null,"properties":{"State":"Jubaland","Region":"Lower Juba","District":"Kismaayo","Section":"Kismayo West","IDP Name":"Basra ","Project":"27 ELN","Site Type":"Level 3","Latitude":"-0.4029567","Longitude":"42.4298541","# Households(Hha)":62,"# Individuals":372}},
{"type":"Feature","geometry":null,"properties":{"State":"Jubaland","Region":"Lower Juba","District":"Kismaayo","Section":"Kismayo North","IDP Name":"Bulabartira","Project":"27 ELN","Site Type":"Level 2","Latitude":"-0.1968049","Longitude":"42.4220151","# Households(Hha)":480,"# Individuals":2880}},
{"type":"Feature","geometry":null,"properties":{"State":"Jubaland","Region":"Lower Juba","District":"Kismaayo","Section":"Kismayo North","IDP Name":"Bulagarasey","Project":"27 ELN","Site Type":"Level 2","Latitude":"-0.2562232","Longitude":"42.4220151","# Households(Hha)":380,"# Individuals":2280}},
{"type":"Feature","geometry":null,"properties":{"State":"Jubaland","Region":"Lower Juba","District":"Kismaayo","Section":"Galbeet","IDP Name":"Buula Banaan","Project":"27 FMM","Site Type":"Batch 1","Latitude":"-0.3585327","Longitude":"42.4220151","# Households(Hha)":92,"# Individuals":552}},
{"type":"Feature","geometry":null,"properties":{"State":"Jubaland","Region":"Lower Juba","District":"Kismaayo","Section":"Galbeet","IDP Name":"Buulo Fatura","Project":"27 ELN","Site Type":"Level 3","Latitude":"-0.3529746","Longitude":"42.4220151","# Households(Hha)":170,"# Individuals":1020}},
{"type":"Feature","geometry":null,"properties":{"State":"Jubaland","Region":"Lower Juba","District":"Kismaayo","Section":"Galbeet","IDP Name":"Buulo Gaduud","Project":"27 FMM","Site Type":"Batch 1","Latitude":"-0.3561412","Longitude":"42.4220151","# Households(Hha)":110,"# Individuals":670}},
{"type":"Feature","geometry":null,"properties":{"State":"Jubaland","Region":"Lower Juba","District":"Kismaayo","Section":"Galbeet","IDP Name":"Camp Kalil","Project":"27 ELN","Site Type":"Level 2","Latitude":"-0.3458291","Longitude":"42.4220151","# Households(Hha)":94,"# Individuals":564}},
{"type":"Feature","geometry":null,"properties":{"State":"Jubaland","Region":"Lower Juba","District":"Kismaayo","Section":"Galbeet","IDP Name":"Camp Owliyo","Project":"27 FMM","Site Type":"Batch 1","Latitude":"-0.3619547","Longitude":"42.4220151","# Households(Hha)":84,"# Individuals":504}},
{"type":"Feature","geometry":null,"properties":{"State":"Jubaland","Region":"Lower Juba","District":"Kismaayo","Section":"Galbeet","IDP Name":"Dano","Project":"27 FMM","Site Type":"Batch 1","Latitude":"-0.3552489","Longitude":"42.4220151","# Households(Hha)":90,"# Individuals":540}},
{"type":"Feature","geometry":null,"properties":{"State":"Jubaland","Region":"Lower Juba","District":"Kismaayo","Section":"Galbeet","IDP Name":"Danwadaag","Project":"27 ELN","Site Type":"Level 3","Latitude":"-0.3680351","Longitude":"42.4220151","# Households(Hha)":91,"# Individuals":566}},
{"type":"Feature","geometry":null,"properties":{"State":"Jubaland","Region":"Lower Juba","District":"Kismaayo","Section":"Galbeet","IDP Name":"Dudu","Project":"27 FMM","Site Type":"Batch 1","Latitude":"-0.3506308","Longitude":"42.4220151","# Households(Hha)":100,"# Individuals":600}},
{"type":"Feature","geometry":null,"properties":{"State":"Jubaland","Region":"Lower Juba","District":"Kismaayo","Section":"Galbeet","IDP Name":"Dulcad","Project":"27 ELN","Site Type":"Level 3","Latitude":"-0.3448049","Longitude":"42.5282915","# Households(Hha)":85,"# Individuals":510}},
{"type":"Feature","geometry":null,"properties":{"State":"Jubaland","Region":"Lower Juba","District":"Kismaayo","Section":"Galbeet","IDP Name":"Elcad ","Project":"27 ELN","Site Type":"Level 3","Latitude":"-0.3453801","Longitude":"42.5268167","# Households(Hha)":520,"# Individuals":2672}},
{"type":"Feature","geometry":null,"properties":{"State":"Jubaland","Region":"Lower Juba","District":"Kismaayo","Section":"Kismayo North","IDP Name":"Eljale 1","Project":"27 ELN","Site Type":"Level 2","Latitude":"-0.2250067","Longitude":"42.5942033","# Households(Hha)":1397,"# Individuals":8382}},
{"type":"Feature","geometry":null,"properties":{"State":"Jubaland","Region":"Lower Juba","District":"Kismaayo","Section":"Kismayo North","IDP Name":"Eljale 2","Project":"27 ELN","Site Type":"Level 2","Latitude":"-0.2186986","Longitude":"42.5922837","# Households(Hha)":1235,"# Individuals":7410}},
{"type":"Feature","geometry":null,"properties":{"State":"Jubaland","Region":"Lower Juba","District":"Kismaayo","Section":"Galbeet","IDP Name":"Feer Sagara","Project":"27 ELN","Site Type":"Level 3","Latitude":"-0.363689","Longitude":"42.5252989","# Households(Hha)":71,"# Individuals":250}},
{"type":"Feature","geometry":null,"properties":{"State":"Jubaland","Region":"Lower Juba","District":"Kismaayo","Section":"Galbeet","IDP Name":"Galbet","Project":"27 ELN","Site Type":"Level 3","Latitude":"-0.3568087","Longitude":"42.4220151","# Households(Hha)":130,"# Individuals":808}},
{"type":"Feature","geometry":null,"properties":{"State":"Jubaland","Region":"Lower Juba","District":"Kismaayo","Section":"Galbeet","IDP Name":"Gubakibir","Project":"27 FMM","Site Type":"Batch 1","Latitude":"-0.35424","Longitude":"42.52541","# Households(Hha)":56,"# Individuals":336}},
{"type":"Feature","geometry":null,"properties":{"State":"Jubaland","Region":"Lower Juba","District":"Kismaayo","Section":"Galbeet","IDP Name":"Habaaqa","Project":"27 FMM","Site Type":"Batch 1","Latitude":"-0.3514178","Longitude":"42.5324857","# Households(Hha)":52,"# Individuals":312}},
{"type":"Feature","geometry":null,"properties":{"State":"Jubaland","Region":"Lower Juba","District":"Kismaayo","Section":"Galbeet","IDP Name":"Haidafin","Project":"27 ELN","Site Type":"Level 3","Latitude":"-0.357596","Longitude":"42.5306057","# Households(Hha)":55,"# Individuals":329}},
{"type":"Feature","geometry":null,"properties":{"State":"Jubaland","Region":"Lower Juba","District":"Kismaayo","Section":"Kismayo North","IDP Name":"Hajiweyne","Project":"27 ELN","Site Type":"Level 2","Latitude":"-0.1746814","Longitude":"42.5802065","# Households(Hha)":580,"# Individuals":3480}},
{"type":"Feature","geometry":null,"properties":{"State":"Jubaland","Region":"Lower Juba","District":"Kismaayo","Section":"Galbeet","IDP Name":"Haraac","Project":"27 ELN","Site Type":"Level 3","Latitude":"-0.3552554","Longitude":"42.5354942","# Households(Hha)":72,"# Individuals":432}},
{"type":"Feature","geometry":null,"properties":{"State":"Jubaland","Region":"Lower Juba","District":"Kismaayo","Section":"Galbeet","IDP Name":"Indha Badan","Project":"27 ELN","Site Type":"Level 3","Latitude":"-0.3565393","Longitude":"42.5317576","# Households(Hha)":59,"# Individuals":354}},
{"type":"Feature","geometry":null,"properties":{"State":"Jubaland","Region":"Lower Juba","District":"Kismaayo","Section":"Kismayo North","IDP Name":"Istambul","Project":"27 ELN","Site Type":"Level 2","Latitude":"-0.2083394","Longitude":"42.5893884","# Households(Hha)":2548,"# Individuals":15288}},
{"type":"Feature","geometry":null,"properties":{"State":"Jubaland","Region":"Lower Juba","District":"Kismaayo","Section":"Galbeet","IDP Name":"Jabbi","Project":"27 FMM","Site Type":"Batch 2","Latitude":"-0.34488","Longitude":"42.52865","# Households(Hha)":72,"# Individuals":440}},
{"type":"Feature","geometry":null,"properties":{"State":"Jubaland","Region":"Lower Juba","District":"Kismaayo","Section":"Galbeet","IDP Name":"Jibirti 1","Project":"27 ELN","Site Type":"Level 3","Latitude":"-0.3609874","Longitude":"42.5276673","# Households(Hha)":67,"# Individuals":402}},
{"type":"Feature","geometry":null,"properties":{"State":"Jubaland","Region":"Lower Juba","District":"Kismaayo","Section":"Galbeet","IDP Name":"Jibirti 2","Project":"27 ELN","Site Type":"Level 3","Latitude":"-0.3607547","Longitude":"42.5283881","# Households(Hha)":56,"# Individuals":312}},
{"type":"Feature","geometry":null,"properties":{"State":"Jubaland","Region":"Lower Juba","District":"Kismaayo","Section":"Galbeet","IDP Name":"Kaal Modoon","Project":"27 ELN","Site Type":"Level 3","Latitude":"-0.361453313","Longitude":"42.52972037","# Households(Hha)":77,"# Individuals":462}},
{"type":"Feature","geometry":null,"properties":{"State":"Jubaland","Region":"Lower Juba","District":"Kismaayo","Section":"Galbeet","IDP Name":"Kanjaron","Project":"27 ELN","Site Type":"Level 3","Latitude":"-0.3560075","Longitude":"42.5357877","# Households(Hha)":85,"# Individuals":510}},
{"type":"Feature","geometry":null,"properties":{"State":"Jubaland","Region":"Lower Juba","District":"Kismaayo","Section":"Galbeet","IDP Name":"Kaytoy","Project":"27 ELN","Site Type":"Level 3","Latitude":"-0.3508424","Longitude":"42.5322289","# Households(Hha)":76,"# Individuals":456}},
{"type":"Feature","geometry":null,"properties":{"State":"Jubaland","Region":"Lower Juba","District":"Kismaayo","Section":"Galbeet","IDP Name":"Luqman Galler","Project":"27 FMM","Site Type":"Batch 1","Latitude":"-0.3606097","Longitude":"42.5320768","# Households(Hha)":93,"# Individuals":558}},
{"type":"Feature","geometry":null,"properties":{"State":"Jubaland","Region":"Lower Juba","District":"Kismaayo","Section":"Galbeet","IDP Name":"Mandeeq","Project":"27 FMM","Site Type":"Batch 2","Latitude":"-0.34486","Longitude":"42.52865","# Households(Hha)":75,"# Individuals":450}},
{"type":"Feature","geometry":null,"properties":{"State":"Jubaland","Region":"Lower Juba","District":"Kismaayo","Section":"Galbeet","IDP Name":"Man-kab","Project":"27 ELN","Site Type":"Level 3","Latitude":"-0.365098","Longitude":"42.5248159","# Households(Hha)":52,"# Individuals":317}},
{"type":"Feature","geometry":null,"properties":{"State":"Jubaland","Region":"Lower Juba","District":"Kismaayo","Section":"Galbeet","IDP Name":"Nasru -Din","Project":"27 ELN","Site Type":"Level 3","Latitude":"-0.3578258","Longitude":"42.5281644","# Households(Hha)":410,"# Individuals":2460}},
{"type":"Feature","geometry":null,"properties":{"State":"Jubaland","Region":"Lower Juba","District":"Kismaayo","Section":"Kismayo North","IDP Name":"New Bulagadud","Project":"27 ELN","Site Type":"Level 2","Latitude":"-0.080968","Longitude":"42.5714853","# Households(Hha)":1530,"# Individuals":9180}},
{"type":"Feature","geometry":null,"properties":{"State":"Jubaland","Region":"Lower Juba","District":"Kismaayo","Section":"Galbeet","IDP Name":"Qalbi Shareef","Project":"27 ELN","Site Type":"Level 3","Latitude":"-0.3539437","Longitude":"42.5268574","# Households(Hha)":61,"# Individuals":372}},
{"type":"Feature","geometry":null,"properties":{"State":"Jubaland","Region":"Lower Juba","District":"Kismaayo","Section":"Kismayo West","IDP Name":"Qarsaa","Project":"27 ELN","Site Type":"Level 2","Latitude":"-0.4285149","Longitude":"42.4034756","# Households(Hha)":153,"# Individuals":918}},
{"type":"Feature","geometry":null,"properties":{"State":"Jubaland","Region":"Lower Juba","District":"Kismaayo","Section":"Galbeet","IDP Name":"Qula'weyne","Project":"27 FMM","Site Type":"Batch 2","Latitude":"-0.34575","Longitude":"42.52878","# Households(Hha)":70,"# Individuals":450}},
{"type":"Feature","geometry":null,"properties":{"State":"Jubaland","Region":"Lower Juba","District":"Kismaayo","Section":"Galbeet","IDP Name":"Rajo","Project":"27 ELN","Site Type":"Level 3","Latitude":"-0.3568079","Longitude":"42.527678","# Households(Hha)":54,"# Individuals":324}},
{"type":"Feature","geometry":null,"properties":{"State":"Jubaland","Region":"Lower Juba","District":"Kismaayo","Section":"Galbeet","IDP Name":"Sakow","Project":"27 ELN","Site Type":"Level 3","Latitude":"-0.3451214","Longitude":"42.5271411","# Households(Hha)":120,"# Individuals":720}},
{"type":"Feature","geometry":null,"properties":{"State":"Jubaland","Region":"Lower Juba","District":"Kismaayo","Section":"Galbeet","IDP Name":"Sato","Project":"27 ELN","Site Type":"Level 3","Latitude":"-0.3491376","Longitude":"42.532511","# Households(Hha)":107,"# Individuals":642}},
{"type":"Feature","geometry":null,"properties":{"State":"Jubaland","Region":"Lower Juba","District":"Kismaayo","Section":"Galbeet","IDP Name":"Shabac","Project":"27 ELN","Site Type":"Level 3","Latitude":"-0.3555847","Longitude":"42.5287007","# Households(Hha)":52,"# Individuals":312}},
{"type":"Feature","geometry":null,"properties":{"State":"Jubaland","Region":"Lower Juba","District":"Kismaayo","Section":"Galbeet","IDP Name":"Shimbirey","Project":"27 ELN","Site Type":"Level 2","Latitude":"-0.3446544","Longitude":"42.5274477","# Households(Hha)":90,"# Individuals":540}},
{"type":"Feature","geometry":null,"properties":{"State":"Jubaland","Region":"Lower Juba","District":"Kismaayo","Section":"Galbeet","IDP Name":"Tariiqane","Project":"27 ELN","Site Type":"Level 3","Latitude":"-0.3558182","Longitude":"42.5362169","# Households(Hha)":65,"# Individuals":390}},
{"type":"Feature","geometry":null,"properties":{"State":"Jubaland","Region":"Lower Juba","District":"Kismaayo","Section":"Kismayo West","IDP Name":"Turquto","Project":"27 FMM","Site Type":"Batch 2","Latitude":"-4453528","Longitude":"42.385814","# Households(Hha)":270,"# Individuals":1620}},
{"type":"Feature","geometry":null,"properties":{"State":"Jubaland","Region":"Lower Juba","District":"Kismaayo","Section":"Galbeet","IDP Name":"Wariri","Project":"27 ELN","Site Type":"Level 3","Latitude":"-0.3584663","Longitude":"42.5314722","# Households(Hha)":75,"# Individuals":450}},
{"type":"Feature","geometry":null,"properties":{"State":"Jubaland","Region":"Lower Juba","District":"Kismaayo","Section":"Galbeet","IDP Name":"Xarxaar","Project":"27 ELN","Site Type":"Level 3","Latitude":"-0.3440779","Longitude":"42.5267445","# Households(Hha)":80,"# Individuals":480}},
{"type":"Feature","geometry":null,"properties":{"State":"Jubaland","Region":"Lower Juba","District":"Kismaayo","Section":"Galbeet","IDP Name":"Yaaq","Project":"27 ELN","Site Type":"Level 3","Latitude":"-0.3524212","Longitude":"42.5305047","# Households(Hha)":76,"# Individuals":456}},
{"type":"Feature","geometry":null,"properties":{"State":"Jubaland","Region":"Lower Juba","District":"Kismaayo","Section":"Galbeet","IDP Name":"Yaq Bishaaro","Project":"27 ELN","Site Type":"Level 3","Latitude":"-0.3658231","Longitude":"42.5262075","# Households(Hha)":70,"# Individuals":431}},
{"type":"Feature","geometry":null,"properties":{"State":"Jubaland","Region":"Lower Juba","District":"Kismaayo","Section":"Galbeet","IDP Name":"Yaq Calolweyn","Project":"27 ELN","Site Type":"Level 2","Latitude":"-0.3449831","Longitude":"42.5282313","# Households(Hha)":84,"# Individuals":504}},
{"type":"Feature","geometry":null,"properties":{"State":"Jubaland","Region":"Lower Juba","District":"Kismaayo","Section":"Galbeet","IDP Name":"Yaq Halul","Project":"27 ELN","Site Type":"Level 3","Latitude":"-0.356772","Longitude":"42.5245868","# Households(Hha)":73,"# Individuals":438}},
{"type":"Feature","geometry":null,"properties":{"State":"Jubaland","Region":"Lower Juba","District":"Kismaayo","Section":"Galbeet","IDP Name":"Yaqshabeel","Project":"27 ELN","Site Type":"Level 3","Latitude":"-0.3622088","Longitude":"42.5294068","# Households(Hha)":65,"# Individuals":390}},
{"type":"Feature","geometry":null,"properties":{"State":"Jubaland","Region":"Lower Juba","District":"Kismaayo","Section":"Kismayo North","IDP Name":"Yontoy","Project":"27 ELN","Site Type":"Level 2","Latitude":"-0.1154903","Longitude":"42.5614785","# Households(Hha)":1310,"# Individuals":7860}},
{"type":"Feature","geometry":null,"properties":{"State":"South West","Region":"Lower Shabelle","District":"Afgooye","Section":"Afgooye Corridor","IDP Name":"Dooxo 2","Project":"27 FMM","Site Type":"Batch 2","Latitude":"2.0786419","Longitude":"45.2167755","# Households(Hha)":150,"# Individuals":900}},
{"type":"Feature","geometry":null,"properties":{"State":"South West","Region":"Lower Shabelle","District":"Afgooye","Section":"Afgooye Corridor","IDP Name":"Canoole","Project":"27 FMM","Site Type":"Batch 2","Latitude":"2.088881","Longitude":"45.1837765","# Households(Hha)":108,"# Individuals":648}},
{"type":"Feature","geometry":null,"properties":{"State":"South West","Region":"Lower Shabelle","District":"Afgooye","Section":"Afgooye Corridor","IDP Name":"Baylod 2","Project":"27 FMM","Site Type":"Batch 2","Latitude":"2.0776104","Longitude":"45.2167187","# Households(Hha)":470,"# Individuals":2820}},
{"type":"Feature","geometry":null,"properties":{"State":"South West","Region":"Lower Shabelle","District":"Afgooye","Section":"Afgooye Corridor","IDP Name":"Samakaab ","Project":"27 FMM","Site Type":"Batch 2","Latitude":"2.0945115","Longitude":"45.1782612","# Households(Hha)":375,"# Individuals":2250}},
{"type":"Feature","geometry":null,"properties":{"State":"South West","Region":"Lower Shabelle","District":"Afgooye","Section":"Afgooye Corridor","IDP Name":"Murug maal","Project":"27 FMM","Site Type":"Batch 2","Latitude":"2.0999613","Longitude":"45.1607489","# Households(Hha)":80,"# Individuals":480}},
{"type":"Feature","geometry":null,"properties":{"State":"South West","Region":"Lower Shabelle","District":"Afgooye","Section":"Afgooye Corridor","IDP Name":"Maraa koof","Project":"27 FMM","Site Type":"Batch 2","Latitude":"2.0865798","Longitude":"45.1762683","# Households(Hha)":97,"# Individuals":582}},
{"type":"Feature","geometry":null,"properties":{"State":"South West","Region":"Lower Shabelle","District":"Afgooye","Section":"Afgooye Corridor","IDP Name":"Cadaley","Project":"27 FMM","Site Type":"Batch 2","Latitude":"2.0896971","Longitude":"45.1840873","# Households(Hha)":50,"# Individuals":300}},
{"type":"Feature","geometry":null,"properties":{"State":"South West","Region":"Lower Shabelle","District":"Afgooye","Section":"Afgooye Corridor","IDP Name":"Jiidane","Project":"27 FMM","Site Type":"Batch 2","Latitude":"2.08656","Longitude":"45.201601","# Households(Hha)":425,"# Individuals":2550}},
{"type":"Feature","geometry":null,"properties":{"State":"South West","Region":"Lower Shabelle","District":"Afgooye","Section":"Afgooye Corridor","IDP Name":"Fulay Ley","Project":"27 FMM","Site Type":"Batch 2","Latitude":"2.077772","Longitude":"45.217341","# Households(Hha)":397,"# Individuals":2382}},
{"type":"Feature","geometry":null,"properties":{"State":"South West","Region":"Lower Shabelle","District":"Afgooye","Section":"Afgooye Corridor","IDP Name":"Dhuumodle","Project":"27 FMM","Site Type":"Batch 2","Latitude":"2.08656","Longitude":"45.201601","# Households(Hha)":290,"# Individuals":1740}},
{"type":"Feature","geometry":null,"properties":{"State":"South West","Region":"Lower Shabelle","District":"Afgooye","Section":"Afgooye Corridor","IDP Name":"Caadiiyga","Project":"27 FMM","Site Type":"Batch 2","Latitude":"2°4'39.5832\"","Longitude":"45°13'0.64812\"","# Households(Hha)":490,"# Individuals":2940}},
{"type":"Feature","geometry":null,"properties":{"State":"South West","Region":"Lower Shabelle","District":"Afgooye","Section":"Afgooye Corridor","IDP Name":"Awgeedi","Project":"27 FMM","Site Type":"Batch 2","Latitude":"2°4'40.95516\"","Longitude":"45°13'1.5492\"","# Households(Hha)":250,"# Individuals":1500}},
{"type":"Feature","geometry":null,"properties":{"State":"South West","Region":"Lower Shabelle","District":"Afgooye","Section":"Afgooye Corridor","IDP Name":"Ayaanle","Project":"27 FMM","Site Type":"Batch 2","Latitude":" 2°4'39.72288\"","Longitude":"45°13'2.22888\"","# Households(Hha)":300,"# Individuals":1800}},
{"type":"Feature","geometry":null,"properties":{"State":"South West","Region":"Lower Shabelle","District":"Afgooye","Section":"Afgooye Corridor","IDP Name":"Biyole","Project":"27 FMM","Site Type":"Batch 2","Latitude":" 2°4'39.7226\"","Longitude":"45°13'2.2278\"","# Households(Hha)":107,"# Individuals":642}},
{"type":"Feature","geometry":null,"properties":{"State":"South West","Region":"Bay","District":"Baidoa","Section":"Horseed","IDP Name":"Hiisool","Project":"27 FMM","Site Type":"Batch 1","Latitude":"3.144028333","Longitude":"43.66234167","# Households(Hha)":120,"# Individuals":720}},
{"type":"Feature","geometry":null,"properties":{"State":"South West","Region":"Bay","District":"Baidoa","Section":"Isha","IDP Name":"Adan Yare","Project":"27 FMM","Site Type":"Batch 1","Latitude":"3.080853333","Longitude":"43.61992833","# Households(Hha)":110,"# Individuals":660}},
{"type":"Feature","geometry":null,"properties":{"State":"South West","Region":"Bay","District":"Baidoa","Section":"Berdale","IDP Name":"Gargaar","Project":"27 FMM","Site Type":"Batch 1","Latitude":"3.1054862","Longitude":"43.6598968","# Households(Hha)":70,"# Individuals":420}},
{"type":"Feature","geometry":null,"properties":{"State":"South West","Region":"Bay","District":"Baidoa","Section":"Isha","IDP Name":"Jurow","Project":"27 FMM","Site Type":"Batch 1","Latitude":"3.0878712","Longitude":"43.6306395","# Households(Hha)":148,"# Individuals":888}},
{"type":"Feature","geometry":null,"properties":{"State":"South West","Region":"Bay","District":"Baidoa","Section":"Horseed","IDP Name":"Cidaad Gari","Project":"27 FMM","Site Type":"Batch 1","Latitude":"3.14805784","Longitude":"43.66877657","# Households(Hha)":105,"# Individuals":630}},
{"type":"Feature","geometry":null,"properties":{"State":"South West","Region":"Bay","District":"Baidoa","Section":"Holwadag","IDP Name":"Kurteely","Project":"27 FMM","Site Type":"Batch 1","Latitude":"3.091562962","Longitude":"43.62552601","# Households(Hha)":70,"# Individuals":420}},
{"type":"Feature","geometry":null,"properties":{"State":"South West","Region":"Bay","District":"Baidoa","Section":"Isha","IDP Name":"Wadajir Takoy","Project":"27 FMM","Site Type":"Batch 1","Latitude":"3.093673333","Longitude":"43.63905","# Households(Hha)":101,"# Individuals":606}},
{"type":"Feature","geometry":null,"properties":{"State":"South West","Region":"Bay","District":"Baidoa","Section":"Holwadag","IDP Name":"Farbuur","Project":"27 FMM","Site Type":"Batch 1","Latitude":"3.134461667","Longitude":"43.63667333","# Households(Hha)":125,"# Individuals":750}},
{"type":"Feature","geometry":null,"properties":{"State":"South West","Region":"Bay","District":"Baidoa","Section":"Holwadag","IDP Name":"Aboore","Project":"27 FMM","Site Type":"Batch 1","Latitude":"3.114908727","Longitude":"43.63273868","# Households(Hha)":100,"# Individuals":600}},
{"type":"Feature","geometry":null,"properties":{"State":"South West","Region":"Bay","District":"Baidoa","Section":"Holwadag","IDP Name":"Al-Baraka","Project":"27 FMM","Site Type":"Batch 1","Latitude":"3.113941925","Longitude":"43.63477406","# Households(Hha)":56,"# Individuals":336}},
{"type":"Feature","geometry":null,"properties":{"State":"South West","Region":"Bay","District":"Baidoa","Section":"Holwadag","IDP Name":"Elbay-2","Project":"27 FMM","Site Type":"Batch 1","Latitude":"3.089847753","Longitude":"43.62558881","# Households(Hha)":207,"# Individuals":1242}},
{"type":"Feature","geometry":null,"properties":{"State":"South West","Region":"Bay","District":"Baidoa","Section":"Berdale","IDP Name":"Sarman-2","Project":"27 FMM","Site Type":"Batch 1","Latitude":"3.127285","Longitude":"43.6725","# Households(Hha)":50,"# Individuals":300}},
{"type":"Feature","geometry":null,"properties":{"State":"South West","Region":"Bay","District":"Baidoa","Section":"Holwadag","IDP Name":"Eesow","Project":"27 FMM","Site Type":"Batch 1","Latitude":"3.093605","Longitude":"43.62710667","# Households(Hha)":93,"# Individuals":558}},
{"type":"Feature","geometry":null,"properties":{"State":"South West","Region":"Bay","District":"Baidoa","Section":"Holwadag","IDP Name":"Afmadow","Project":"27 ELN","Site Type":"Level 3","Latitude":"3.0928424","Longitude":"43.6274623","# Households(Hha)":96,"# Individuals":576}},
{"type":"Feature","geometry":null,"properties":{"State":"South West","Region":"Bay","District":"Baidoa","Section":"Horseed","IDP Name":"Afmadow - Horseed","Project":"27 ELN","Site Type":"Level 3","Latitude":"3.15102247","Longitude":"43.67239219","# Households(Hha)":106,"# Individuals":636}},
{"type":"Feature","geometry":null,"properties":{"State":"South West","Region":"Bay","District":"Baidoa","Section":"Berdale","IDP Name":"Hafata-3","Project":"27 ELN","Site Type":"Level 3","Latitude":"3.1326406","Longitude":"43.6762543","# Households(Hha)":130,"# Individuals":780}},
{"type":"Feature","geometry":null,"properties":{"State":"South West","Region":"Bay","District":"Baidoa","Section":"Horseed","IDP Name":"Balanbale","Project":"27 ELN","Site Type":"Level 3","Latitude":"3.1502893","Longitude":"43.672014","# Households(Hha)":70,"# Individuals":420}},
{"type":"Feature","geometry":null,"properties":{"State":"South West","Region":"Bay","District":"Baidoa","Section":"Berdale","IDP Name":"Ban Sadiiq","Project":"27 ELN","Site Type":"Level 3","Latitude":"3.1260075","Longitude":"43.6743748","# Households(Hha)":101,"# Individuals":606}},
{"type":"Feature","geometry":null,"properties":{"State":"South West","Region":"Bay","District":"Baidoa","Section":"Berdale","IDP Name":"Barakaley","Project":"27 ELN","Site Type":"Level 3","Latitude":"3.126435089","Longitude":"43.67763919","# Households(Hha)":90,"# Individuals":540}},
{"type":"Feature","geometry":null,"properties":{"State":"South West","Region":"Bay","District":"Baidoa","Section":"Berdale","IDP Name":"Barariye","Project":"27 ELN","Site Type":"Level 3","Latitude":"3.1032874","Longitude":"43.6583769","# Households(Hha)":120,"# Individuals":720}},
{"type":"Feature","geometry":null,"properties":{"State":"South West","Region":"Bay","District":"Baidoa","Section":"Berdale","IDP Name":"Barkadle","Project":"27 ELN","Site Type":"Level 3","Latitude":"3.103945","Longitude":"43.6646672","# Households(Hha)":100,"# Individuals":600}},
{"type":"Feature","geometry":null,"properties":{"State":"South West","Region":"Bay","District":"Baidoa","Section":"Berdale","IDP Name":"Borame","Project":"27 ELN","Site Type":"Level 3","Latitude":"3.125422136","Longitude":"43.67782778","# Households(Hha)":120,"# Individuals":720}},
{"type":"Feature","geometry":null,"properties":{"State":"South West","Region":"Bay","District":"Baidoa","Section":"Berdale","IDP Name":"Buur Helade","Project":"27 ELN","Site Type":"Level 3","Latitude":"3.1042142","Longitude":"43.6652786","# Households(Hha)":228,"# Individuals":1368}},
{"type":"Feature","geometry":null,"properties":{"State":"South West","Region":"Bay","District":"Baidoa","Section":"Berdale","IDP Name":"Dugsilow","Project":"27 ELN","Site Type":"Level 3","Latitude":"3.1031964","Longitude":"43.6585374","# Households(Hha)":129,"# Individuals":774}},
{"type":"Feature","geometry":null,"properties":{"State":"South West","Region":"Bay","District":"Baidoa","Section":"Berdale","IDP Name":"Galgal Onle-2","Project":"27 ELN","Site Type":"Level 3","Latitude":"3.129027444","Longitude":"43.67773709","# Households(Hha)":203,"# Individuals":1218}},
{"type":"Feature","geometry":null,"properties":{"State":"South West","Region":"Bay","District":"Baidoa","Section":"Berdale","IDP Name":"Guudka","Project":"27 ELN","Site Type":"Level 3","Latitude":"3.103945","Longitude":"43.6646672","# Households(Hha)":188,"# Individuals":1128}},
{"type":"Feature","geometry":null,"properties":{"State":"South West","Region":"Bay","District":"Baidoa","Section":"Berdale","IDP Name":"Iri Roog","Project":"27 ELN","Site Type":"Level 3","Latitude":"3.125422136","Longitude":"43.67782778","# Households(Hha)":88,"# Individuals":528}},
{"type":"Feature","geometry":null,"properties":{"State":"South West","Region":"Bay","District":"Baidoa","Section":"Berdale","IDP Name":"Iri Roog Win","Project":"27 ELN","Site Type":"Level 3","Latitude":"3.125499333","Longitude":"43.67531958","# Households(Hha)":133,"# Individuals":798}},
{"type":"Feature","geometry":null,"properties":{"State":"South West","Region":"Bay","District":"Baidoa","Section":"Berdale","IDP Name":"Jawari","Project":"27 ELN","Site Type":"Level 3","Latitude":"3.125405","Longitude":"43.67378333","# Households(Hha)":128,"# Individuals":768}},
{"type":"Feature","geometry":null,"properties":{"State":"South West","Region":"Bay","District":"Baidoa","Section":"Berdale","IDP Name":"Kulmiye","Project":"27 ELN","Site Type":"Level 3","Latitude":"3.126435089","Longitude":"43.67763919","# Households(Hha)":118,"# Individuals":708}},
{"type":"Feature","geometry":null,"properties":{"State":"South West","Region":"Bay","District":"Baidoa","Section":"Berdale","IDP Name":"Maka Dhagoole-1","Project":"27 ELN","Site Type":"Level 3","Latitude":"3.125405","Longitude":"43.67378333","# Households(Hha)":97,"# Individuals":582}},
{"type":"Feature","geometry":null,"properties":{"State":"South West","Region":"Bay","District":"Baidoa","Section":"Berdale","IDP Name":"Misnagata","Project":"27 ELN","Site Type":"Level 3","Latitude":"3.1048082","Longitude":"43.6649751","# Households(Hha)":119,"# Individuals":714}},
{"type":"Feature","geometry":null,"properties":{"State":"South West","Region":"Bay","District":"Baidoa","Section":"Berdale","IDP Name":"Mogar Arow","Project":"27 ELN","Site Type":"Level 3","Latitude":"3.1284606","Longitude":"43.6734707","# Households(Hha)":161,"# Individuals":966}},
{"type":"Feature","geometry":null,"properties":{"State":"South West","Region":"Bay","District":"Baidoa","Section":"Berdale","IDP Name":"Osbole","Project":"27 ELN","Site Type":"Level 3","Latitude":"3.1034554","Longitude":"43.6612848","# Households(Hha)":136,"# Individuals":816}},
{"type":"Feature","geometry":null,"properties":{"State":"South West","Region":"Bay","District":"Baidoa","Section":"Berdale","IDP Name":"Qod Qode","Project":"27 ELN","Site Type":"Level 3","Latitude":"3.1048082","Longitude":"43.6649751","# Households(Hha)":308,"# Individuals":1848}},
{"type":"Feature","geometry":null,"properties":{"State":"South West","Region":"Bay","District":"Baidoa","Section":"Berdale","IDP Name":"Galuul Sarmaan","Project":"27 ELN","Site Type":"Level 3","Latitude":"3.12535441","Longitude":"43.67435834","# Households(Hha)":141,"# Individuals":846}},
{"type":"Feature","geometry":null,"properties":{"State":"South West","Region":"Bay","District":"Baidoa","Section":"Berdale","IDP Name":"Quracle","Project":"27 ELN","Site Type":"Level 3","Latitude":"3.131908556","Longitude":"43.6747196","# Households(Hha)":103,"# Individuals":618}},
{"type":"Feature","geometry":null,"properties":{"State":"South West","Region":"Bay","District":"Baidoa","Section":"Berdale","IDP Name":"Sagam","Project":"27 ELN","Site Type":"Level 3","Latitude":"3.129584589","Longitude":"43.67292504","# Households(Hha)":133,"# Individuals":798}},
{"type":"Feature","geometry":null,"properties":{"State":"South West","Region":"Bay","District":"Baidoa","Section":"Berdale","IDP Name":"salamey-2","Project":"27 ELN","Site Type":"Level 3","Latitude":"3.1284794","Longitude":"43.6720927","# Households(Hha)":153,"# Individuals":918}},
{"type":"Feature","geometry":null,"properties":{"State":"South West","Region":"Bay","District":"Baidoa","Section":"Berdale","IDP Name":"War Harqaan","Project":"27 ELN","Site Type":"Level 3","Latitude":"3.1301264","Longitude":"43.6737075","# Households(Hha)":103,"# Individuals":618}},
{"type":"Feature","geometry":null,"properties":{"State":"South West","Region":"Bay","District":"Baidoa","Section":"Berdale","IDP Name":"Yakuman","Project":"27 ELN","Site Type":"Level 3","Latitude":"3.129584589","Longitude":"43.67292504","# Households(Hha)":121,"# Individuals":726}},
{"type":"Feature","geometry":null,"properties":{"State":"South West","Region":"Bay","District":"Baidoa","Section":"Holwadag","IDP Name":"Al-Furqan 1","Project":"27 ELN","Site Type":"Level 3","Latitude":"3.0978803","Longitude":"43.634331","# Households(Hha)":77,"# Individuals":462}},
{"type":"Feature","geometry":null,"properties":{"State":"South West","Region":"Bay","District":"Baidoa","Section":"Holwadag","IDP Name":"Al-Qaras","Project":"27 ELN","Site Type":"Level 3","Latitude":"3.0928424","Longitude":"43.6274623","# Households(Hha)":148,"# Individuals":888}},
{"type":"Feature","geometry":null,"properties":{"State":"South West","Region":"Bay","District":"Baidoa","Section":"Holwadag","IDP Name":"Alla Suge-2","Project":"27 ELN","Site Type":"Level 3","Latitude":"3.11479","Longitude":"43.63048","# Households(Hha)":124,"# Individuals":744}},
{"type":"Feature","geometry":null,"properties":{"State":"South West","Region":"Bay","District":"Baidoa","Section":"Holwadag","IDP Name":"Arsham","Project":"27 ELN","Site Type":"Level 3","Latitude":"3.1347249","Longitude":"43.6358416","# Households(Hha)":197,"# Individuals":1182}},
{"type":"Feature","geometry":null,"properties":{"State":"South West","Region":"Bay","District":"Baidoa","Section":"Holwadag","IDP Name":"Banjinay","Project":"27 ELN","Site Type":"Level 3","Latitude":"3.1409111","Longitude":"43.6278935","# Households(Hha)":203,"# Individuals":1218}},
{"type":"Feature","geometry":null,"properties":{"State":"South West","Region":"Bay","District":"Baidoa","Section":"Holwadag","IDP Name":"Dooday","Project":"27 ELN","Site Type":"Level 3","Latitude":"3.1177467","Longitude":"43.629341","# Households(Hha)":183,"# Individuals":1098}},
{"type":"Feature","geometry":null,"properties":{"State":"South West","Region":"Bay","District":"Baidoa","Section":"Holwadag","IDP Name":"Dusti","Project":"27 ELN","Site Type":"Level 3","Latitude":"3.0978803","Longitude":"43.634331","# Households(Hha)":108,"# Individuals":648}},
{"type":"Feature","geometry":null,"properties":{"State":"South West","Region":"Bay","District":"Baidoa","Section":"Holwadag","IDP Name":"Kalamey","Project":"27 ELN","Site Type":"Level 3","Latitude":"3.0818616","Longitude":"43.6200199","# Households(Hha)":158,"# Individuals":948}},
{"type":"Feature","geometry":null,"properties":{"State":"South West","Region":"Bay","District":"Baidoa","Section":"Holwadag","IDP Name":"Kulmiye/Kulmis","Project":"27 ELN","Site Type":"Level 3","Latitude":"3.1230753","Longitude":"43.6383256","# Households(Hha)":138,"# Individuals":828}},
{"type":"Feature","geometry":null,"properties":{"State":"South West","Region":"Bay","District":"Baidoa","Section":"Holwadag","IDP Name":"Madhayta","Project":"27 ELN","Site Type":"Level 3","Latitude":"3.1347249","Longitude":"43.6358416","# Households(Hha)":258,"# Individuals":1548}},
{"type":"Feature","geometry":null,"properties":{"State":"South West","Region":"Bay","District":"Baidoa","Section":"Holwadag","IDP Name":"Mayqoonsiti","Project":"27 ELN","Site Type":"Level 3","Latitude":"3.0860383","Longitude":"43.6229917","# Households(Hha)":150,"# Individuals":900}},
{"type":"Feature","geometry":null,"properties":{"State":"South West","Region":"Bay","District":"Baidoa","Section":"Holwadag","IDP Name":"Megagle","Project":"27 ELN","Site Type":"Level 3","Latitude":"3.1222003","Longitude":"43.6298746","# Households(Hha)":175,"# Individuals":1050}},
{"type":"Feature","geometry":null,"properties":{"State":"South West","Region":"Bay","District":"Baidoa","Section":"Holwadag","IDP Name":"Qaboobe","Project":"27 ELN","Site Type":"Level 3","Latitude":"3.0925257","Longitude":"43.6247541","# Households(Hha)":103,"# Individuals":618}},
{"type":"Feature","geometry":null,"properties":{"State":"South West","Region":"Bay","District":"Baidoa","Section":"Holwadag","IDP Name":"Siigadheere-1","Project":"27 ELN","Site Type":"Level 3","Latitude":"3.114805","Longitude":"43.63168833","# Households(Hha)":118,"# Individuals":708}},
{"type":"Feature","geometry":null,"properties":{"State":"South West","Region":"Bay","District":"Baidoa","Section":"Holwadag","IDP Name":"Siigadheere-2","Project":"27 ELN","Site Type":"Level 3","Latitude":"3.11479","Longitude":"43.63048","# Households(Hha)":145,"# Individuals":870}},
{"type":"Feature","geometry":null,"properties":{"State":"South West","Region":"Bay","District":"Baidoa","Section":"Holwadag","IDP Name":"Tubaney","Project":"27 ELN","Site Type":"Level 3","Latitude":"3.1392397","Longitude":"43.6367045","# Households(Hha)":118,"# Individuals":708}},
{"type":"Feature","geometry":null,"properties":{"State":"South West","Region":"Bay","District":"Baidoa","Section":"Holwadag","IDP Name":"Yaqda-3","Project":"27 ELN","Site Type":"Level 3","Latitude":"3.1234207","Longitude":"43.6380187","# Households(Hha)":145,"# Individuals":870}},
{"type":"Feature","geometry":null,"properties":{"State":"South West","Region":"Bay","District":"Baidoa","Section":"Holwadag","IDP Name":"Yaqda-3.2","Project":"27 ELN","Site Type":"Level 3","Latitude":"3.1234207","Longitude":"43.6380187","# Households(Hha)":87,"# Individuals":522}},
{"type":"Feature","geometry":null,"properties":{"State":"South West","Region":"Bay","District":"Baidoa","Section":"Holwadag","IDP Name":"Waberi 1","Project":"27 ELN","Site Type":"Level 3","Latitude":"3.1222003","Longitude":"43.6298746","# Households(Hha)":50,"# Individuals":300}},
{"type":"Feature","geometry":null,"properties":{"State":"South West","Region":"Bay","District":"Baidoa","Section":"Holwadag","IDP Name":"Wargaras Mosh","Project":"27 ELN","Site Type":"Level 3","Latitude":"3.1409111","Longitude":"43.6278935","# Households(Hha)":173,"# Individuals":1038}},
{"type":"Feature","geometry":null,"properties":{"State":"South West","Region":"Bay","District":"Baidoa","Section":"Holwadag","IDP Name":"Elgaras","Project":"27 ELN","Site Type":"Level 3","Latitude":"3.0928424","Longitude":"43.6274623","# Households(Hha)":165,"# Individuals":990}},
{"type":"Feature","geometry":null,"properties":{"State":"South West","Region":"Bay","District":"Baidoa","Section":"Holwadag","IDP Name":"Lowraar","Project":"27 ELN","Site Type":"Level 3","Latitude":"3.0818616","Longitude":"43.6200199","# Households(Hha)":182,"# Individuals":1092}},
{"type":"Feature","geometry":null,"properties":{"State":"South West","Region":"Bay","District":"Baidoa","Section":"Horseed","IDP Name":"Alla Suge-1","Project":"27 ELN","Site Type":"Level 3","Latitude":"3.1486429","Longitude":"43.658648","# Households(Hha)":158,"# Individuals":948}},
{"type":"Feature","geometry":null,"properties":{"State":"South West","Region":"Bay","District":"Baidoa","Section":"Horseed","IDP Name":"Abal-5","Project":"27 ELN","Site Type":"Level 3","Latitude":"3.1536928","Longitude":"43.6762018","# Households(Hha)":158,"# Individuals":948}},
{"type":"Feature","geometry":null,"properties":{"State":"South West","Region":"Bay","District":"Baidoa","Section":"Horseed","IDP Name":"Anole","Project":"27 ELN","Site Type":"Level 3","Latitude":"3.15177136","Longitude":"43.66708129","# Households(Hha)":258,"# Individuals":1548}},
{"type":"Feature","geometry":null,"properties":{"State":"South West","Region":"Bay","District":"Baidoa","Section":"Horseed","IDP Name":"Awal Barwaqo","Project":"27 ELN","Site Type":"Level 3","Latitude":"3.139005","Longitude":"43.66871263","# Households(Hha)":245,"# Individuals":1470}},
{"type":"Feature","geometry":null,"properties":{"State":"South West","Region":"Bay","District":"Baidoa","Section":"Horseed","IDP Name":"Banaadir","Project":"27 ELN","Site Type":"Level 3","Latitude":"3.154341592","Longitude":"43.67756504","# Households(Hha)":268,"# Individuals":1608}},
{"type":"Feature","geometry":null,"properties":{"State":"South West","Region":"Bay","District":"Baidoa","Section":"Horseed","IDP Name":"Buule Fuur","Project":"27 ELN","Site Type":"Level 3","Latitude":"3.1404157","Longitude":"43.6765869","# Households(Hha)":208,"# Individuals":1248}},
{"type":"Feature","geometry":null,"properties":{"State":"South West","Region":"Bay","District":"Baidoa","Section":"Horseed","IDP Name":"Dulmediid","Project":"27 ELN","Site Type":"Level 3","Latitude":"3.1405288","Longitude":"43.6750491","# Households(Hha)":258,"# Individuals":1548}},
{"type":"Feature","geometry":null,"properties":{"State":"South West","Region":"Bay","District":"Baidoa","Section":"Horseed","IDP Name":"Fathu-Rahman","Project":"27 ELN","Site Type":"Level 3","Latitude":"3.1403029","Longitude":"43.6670188","# Households(Hha)":308,"# Individuals":1848}},
{"type":"Feature","geometry":null,"properties":{"State":"South West","Region":"Bay","District":"Baidoa","Section":"Horseed","IDP Name":"Garas Goof","Project":"27 ELN","Site Type":"Level 3","Latitude":"3.1424356","Longitude":"43.6589159","# Households(Hha)":308,"# Individuals":1848}},
{"type":"Feature","geometry":null,"properties":{"State":"South West","Region":"Bay","District":"Baidoa","Section":"Horseed","IDP Name":"Goosate","Project":"27 ELN","Site Type":"Level 3","Latitude":"3.1502893","Longitude":"43.672014","# Households(Hha)":358,"# Individuals":2148}},
{"type":"Feature","geometry":null,"properties":{"State":"South West","Region":"Bay","District":"Baidoa","Section":"Horseed","IDP Name":"Omane","Project":"27 ELN","Site Type":"Level 3","Latitude":"3.127285","Longitude":"43.6725","# Households(Hha)":132,"# Individuals":792}},
{"type":"Feature","geometry":null,"properties":{"State":"South West","Region":"Bay","District":"Baidoa","Section":"Horseed","IDP Name":"Lowa Garore","Project":"27 ELN","Site Type":"Level 3","Latitude":"3.154732637","Longitude":"43.68095613","# Households(Hha)":128,"# Individuals":768}},
{"type":"Feature","geometry":null,"properties":{"State":"South West","Region":"Bay","District":"Baidoa","Section":"Horseed","IDP Name":"Malel","Project":"27 ELN","Site Type":"Level 3","Latitude":"3.14571351","Longitude":"43.6667177","# Households(Hha)":80,"# Individuals":480}},
{"type":"Feature","geometry":null,"properties":{"State":"South West","Region":"Bay","District":"Baidoa","Section":"Horseed","IDP Name":"Mitaano Ween","Project":"27 ELN","Site Type":"Level 3","Latitude":"3.15216752","Longitude":"43.67308298","# Households(Hha)":188,"# Individuals":1128}},
{"type":"Feature","geometry":null,"properties":{"State":"South West","Region":"Bay","District":"Baidoa","Section":"Horseed","IDP Name":"Nashe","Project":"27 ELN","Site Type":"Level 3","Latitude":"3.14571351","Longitude":"43.6667177","# Households(Hha)":71,"# Individuals":426}},
{"type":"Feature","geometry":null,"properties":{"State":"South West","Region":"Bay","District":"Baidoa","Section":"Horseed","IDP Name":"Neebsoy","Project":"27 ELN","Site Type":"Level 3","Latitude":"3.14571351","Longitude":"43.6667177","# Households(Hha)":49,"# Individuals":294}},
{"type":"Feature","geometry":null,"properties":{"State":"South West","Region":"Bay","District":"Baidoa","Section":"Horseed","IDP Name":"Sarman Dheer","Project":"27 ELN","Site Type":"Level 3","Latitude":"3.149524","Longitude":"43.6685724","# Households(Hha)":148,"# Individuals":888}},
{"type":"Feature","geometry":null,"properties":{"State":"South West","Region":"Bay","District":"Baidoa","Section":"Horseed","IDP Name":"saydhelow","Project":"27 ELN","Site Type":"Level 3","Latitude":"3.1424356","Longitude":"43.6589159","# Households(Hha)":83,"# Individuals":498}},
{"type":"Feature","geometry":null,"properties":{"State":"South West","Region":"Bay","District":"Baidoa","Section":"Horseed","IDP Name":"Sooraan","Project":"27 ELN","Site Type":"Level 3","Latitude":"3.13914141","Longitude":"43.66177501","# Households(Hha)":40,"# Individuals":240}},
{"type":"Feature","geometry":null,"properties":{"State":"South West","Region":"Bay","District":"Baidoa","Section":"Horseed","IDP Name":"Waberi 2","Project":"27 ELN","Site Type":"Level 3","Latitude":"3.1405288","Longitude":"43.6750491","# Households(Hha)":44,"# Individuals":264}},
{"type":"Feature","geometry":null,"properties":{"State":"South West","Region":"Bay","District":"Baidoa","Section":"Horseed","IDP Name":"Wajeer","Project":"27 ELN","Site Type":"Level 3","Latitude":"3.1087414","Longitude":"43.6739965","# Households(Hha)":70,"# Individuals":420}},
{"type":"Feature","geometry":null,"properties":{"State":"South West","Region":"Bay","District":"Baidoa","Section":"Horseed","IDP Name":"Walaq-1","Project":"27 ELN","Site Type":"Level 3","Latitude":"3.15102247","Longitude":"43.67239219","# Households(Hha)":208,"# Individuals":1248}},
{"type":"Feature","geometry":null,"properties":{"State":"South West","Region":"Bay","District":"Baidoa","Section":"Horseed","IDP Name":"Widay Rahman-2","Project":"27 ELN","Site Type":"Level 3","Latitude":"3.14571351","Longitude":"43.6667177","# Households(Hha)":258,"# Individuals":1548}},
{"type":"Feature","geometry":null,"properties":{"State":"South West","Region":"Bay","District":"Baidoa","Section":"Isha","IDP Name":"Badbaado","Project":"27 ELN","Site Type":"Level 3","Latitude":"3.0943414","Longitude":"43.6355278","# Households(Hha)":198,"# Individuals":1188}},
{"type":"Feature","geometry":null,"properties":{"State":"South West","Region":"Bay","District":"Baidoa","Section":"Isha","IDP Name":"Bakalasheeg","Project":"27 ELN","Site Type":"Level 3","Latitude":"3.1031665","Longitude":"43.6622744","# Households(Hha)":150,"# Individuals":900}},
{"type":"Feature","geometry":null,"properties":{"State":"South West","Region":"Bay","District":"Baidoa","Section":"Isha","IDP Name":"Bulo Gomor  1","Project":"27 ELN","Site Type":"Level 3","Latitude":"3.0943414","Longitude":"43.6355278","# Households(Hha)":173,"# Individuals":1038}},
{"type":"Feature","geometry":null,"properties":{"State":"South West","Region":"Bay","District":"Baidoa","Section":"Isha","IDP Name":"Buulo Duuf","Project":"27 ELN","Site Type":"Level 3","Latitude":"3.0908675","Longitude":"43.6311041","# Households(Hha)":133,"# Individuals":798}},
{"type":"Feature","geometry":null,"properties":{"State":"South West","Region":"Bay","District":"Baidoa","Section":"Isha","IDP Name":"Buulo Sheeb-1","Project":"27 ELN","Site Type":"Level 3","Latitude":"3.102144","Longitude":"43.6573655","# Households(Hha)":208,"# Individuals":1248}},
{"type":"Feature","geometry":null,"properties":{"State":"South West","Region":"Bay","District":"Baidoa","Section":"Isha","IDP Name":"Buulo Sheeb-2","Project":"27 ELN","Site Type":"Level 3","Latitude":"3.102144","Longitude":"43.6573655","# Households(Hha)":204,"# Individuals":1224}},
{"type":"Feature","geometry":null,"properties":{"State":"South West","Region":"Bay","District":"Baidoa","Section":"Isha","IDP Name":"Buur Eyla","Project":"27 ELN","Site Type":"Level 3","Latitude":"3.102144","Longitude":"43.6573655","# Households(Hha)":154,"# Individuals":924}},
{"type":"Feature","geometry":null,"properties":{"State":"South West","Region":"Bay","District":"Baidoa","Section":"Isha","IDP Name":"Elbet-2","Project":"27 ELN","Site Type":"Level 3","Latitude":"3.0901144","Longitude":"43.6284955","# Households(Hha)":198,"# Individuals":1188}},
{"type":"Feature","geometry":null,"properties":{"State":"South West","Region":"Bay","District":"Baidoa","Section":"Isha","IDP Name":"Hassan Muunin","Project":"27 ELN","Site Type":"Level 3","Latitude":"3.0874168","Longitude":"43.6274693","# Households(Hha)":158,"# Individuals":948}},
{"type":"Feature","geometry":null,"properties":{"State":"South West","Region":"Bay","District":"Baidoa","Section":"Isha","IDP Name":"Idaale Janaay","Project":"27 ELN","Site Type":"Level 3","Latitude":"3.1046614","Longitude":"43.6423171","# Households(Hha)":55,"# Individuals":330}},
{"type":"Feature","geometry":null,"properties":{"State":"South West","Region":"Bay","District":"Baidoa","Section":"Isha","IDP Name":"Shiimo Tiyeglow","Project":"27 ELN","Site Type":"Level 3","Latitude":"3.1046614","Longitude":"43.6423171","# Households(Hha)":128,"# Individuals":768}},
{"type":"Feature","geometry":null,"properties":{"State":"South West","Region":"Bay","District":"Baidoa","Section":"Isha","IDP Name":"Tawakal 2 Diinsoor","Project":"27 ELN","Site Type":"Level 3","Latitude":"3.0915216","Longitude":"43.6338084","# Households(Hha)":234,"# Individuals":1404}},
{"type":"Feature","geometry":null,"properties":{"State":"South West","Region":"Bay","District":"Baidoa","Section":"Isha","IDP Name":"Tawakal Gurbaan","Project":"27 ELN","Site Type":"Level 3","Latitude":"3.0897155","Longitude":"43.6319344","# Households(Hha)":189,"# Individuals":1134}},
{"type":"Feature","geometry":null,"properties":{"State":"South West","Region":"Bay","District":"Baidoa","Section":"Isha","IDP Name":"Towhiid","Project":"27 ELN","Site Type":"Level 3","Latitude":"3.1087414","Longitude":"43.6739965","# Households(Hha)":85,"# Individuals":510}},
{"type":"Feature","geometry":null,"properties":{"State":"South West","Region":"Bay","District":"Baidoa","Section":"Isha","IDP Name":"Waami Abaawli","Project":"27 ELN","Site Type":"Level 3","Latitude":"3.1052203","Longitude":"43.6603919","# Households(Hha)":127,"# Individuals":762}},
{"type":"Feature","geometry":null,"properties":{"State":"South West","Region":"Bay","District":"Baidoa","Section":"Isha","IDP Name":"Qamarey","Project":"27 ELN","Site Type":"Level 3","Latitude":"3.1027125","Longitude":"43.6575503","# Households(Hha)":118,"# Individuals":708}},
{"type":"Feature","geometry":null,"properties":{"State":"South West","Region":"Bay","District":"Baidoa","Section":"Holwadag","IDP Name":"Indholayasha Nimcole","Project":"27 ELN","Site Type":"Level 3","Latitude":"3.0920165","Longitude":"43.6289314","# Households(Hha)":112,"# Individuals":672}},
{"type":"Feature","geometry":null,"properties":{"State":"South West","Region":"Bay","District":"Baidoa","Section":"Berdale","IDP Name":"Faara Buurow","Project":"27 ELN","Site Type":"Level 3","Latitude":"","Longitude":"","# Households(Hha)":181,"# Individuals":1086}},
{"type":"Feature","geometry":null,"properties":{"State":"South West","Region":"Bay","District":"Baidoa","Section":"Isha","IDP Name":"Buulo Biyoley","Project":"27 ELN","Site Type":"Level 3","Latitude":"","Longitude":"","# Households(Hha)":117,"# Individuals":702}},
{"type":"Feature","geometry":null,"properties":{"State":"South West","Region":"Bay","District":"Baidoa","Section":"Isha","IDP Name":"Qasax Dheere","Project":"27 ELN","Site Type":"Level 2","Latitude":"3.0884495","Longitude":"43.6287766","# Households(Hha)":181,"# Individuals":1086}},
{"type":"Feature","geometry":null,"properties":{"State":"South West","Region":"Bay","District":"Baidoa","Section":"Isha","IDP Name":"Buulo sheekh","Project":"27 ELN","Site Type":"Level 2","Latitude":"3.0867043","Longitude":"43.6275221","# Households(Hha)":150,"# Individuals":900}},
{"type":"Feature","geometry":null,"properties":{"State":"South West","Region":"Bay","District":"Baidoa","Section":"Isha","IDP Name":"Koobabe","Project":"27 ELN","Site Type":"Level 2","Latitude":"3.0890175","Longitude":"43.6370362","# Households(Hha)":113,"# Individuals":678}},
{"type":"Feature","geometry":null,"properties":{"State":"South West","Region":"Bay","District":"Baidoa","Section":"Isha","IDP Name":"Kerow Marqan2","Project":"27 ELN","Site Type":"Level 2","Latitude":"3.0864475","Longitude":"43.630325","# Households(Hha)":97,"# Individuals":582}},
{"type":"Feature","geometry":null,"properties":{"State":"South West","Region":"Bay","District":"Baidoa","Section":"Holwadag","IDP Name":"Birigey","Project":"27 ELN","Site Type":"Level 2","Latitude":"3.091696543","Longitude":"43.62757375","# Households(Hha)":110,"# Individuals":660}},
{"type":"Feature","geometry":null,"properties":{"State":"South West","Region":"Bay","District":"Baidoa","Section":"Holwadag","IDP Name":"Balanbasho","Project":"27 ELN","Site Type":"Level 2","Latitude":"3.0921155","Longitude":"43.6253538","# Households(Hha)":175,"# Individuals":1050}},
{"type":"Feature","geometry":null,"properties":{"State":"South West","Region":"Bay","District":"Baidoa","Section":"Isha","IDP Name":"Mubarak Yarey","Project":"27 ELN","Site Type":"Level 2","Latitude":"3.070901044","Longitude":"43.61581809","# Households(Hha)":110,"# Individuals":660}},
{"type":"Feature","geometry":null,"properties":{"State":"South West","Region":"Bay","District":"Baidoa","Section":"Isha","IDP Name":"Riikoy","Project":"27 ELN","Site Type":"Level 2","Latitude":"3.080847081","Longitude":"43.62503989","# Households(Hha)":88,"# Individuals":528}},
{"type":"Feature","geometry":null,"properties":{"State":"South West","Region":"Bay","District":"Baidoa","Section":"Holwadag","IDP Name":"Fursa","Project":"27 ELN","Site Type":"Level 2","Latitude":"3.0937351","Longitude":"43.6257713","# Households(Hha)":198,"# Individuals":1188}},
{"type":"Feature","geometry":null,"properties":{"State":"South West","Region":"Bay","District":"Baidoa","Section":"Horseed","IDP Name":"Dolondole3","Project":"27 ELN","Site Type":"Level 2","Latitude":"3.1562139","Longitude":"43.6778952","# Households(Hha)":138,"# Individuals":828}},
{"type":"Feature","geometry":null,"properties":{"State":"South West","Region":"Bay","District":"Baidoa","Section":"Horseed","IDP Name":"Masala","Project":"27 ELN","Site Type":"Level 2","Latitude":"3.1534469","Longitude":"43.6758617","# Households(Hha)":160,"# Individuals":960}},
{"type":"Feature","geometry":null,"properties":{"State":"South West","Region":"Bay","District":"Baidoa","Section":"Horseed","IDP Name":"Baalidoore","Project":"27 ELN","Site Type":"Level 2","Latitude":"3.1493016","Longitude":"43.6707812","# Households(Hha)":93,"# Individuals":558}},
{"type":"Feature","geometry":null,"properties":{"State":"South West","Region":"Bay","District":"Baidoa","Section":"Horseed","IDP Name":"Waaysiyow","Project":"27 ELN","Site Type":"Level 2","Latitude":"3.1544433","Longitude":"43.6704757","# Households(Hha)":110,"# Individuals":660}},
{"type":"Feature","geometry":null,"properties":{"State":"South West","Region":"Bay","District":"Baidoa","Section":"Horseed","IDP Name":"Macaney","Project":"27 ELN","Site Type":"Level 2","Latitude":"3.14969745","Longitude":"43.67081952","# Households(Hha)":115,"# Individuals":690}},
{"type":"Feature","geometry":null,"properties":{"State":"South West","Region":"Bay","District":"Baidoa","Section":"Berdale","IDP Name":"Harerajifi","Project":"27 ELN","Site Type":"Level 2","Latitude":"3.1035547","Longitude":"43.6594518","# Households(Hha)":195,"# Individuals":1170}},
{"type":"Feature","geometry":null,"properties":{"State":"South West","Region":"Bay","District":"Baidoa","Section":"Holwadag","IDP Name":"Laan Agab","Project":"27 ELN","Site Type":"Level 2","Latitude":"3.1370949","Longitude":"43.631871","# Households(Hha)":78,"# Individuals":468}},
{"type":"Feature","geometry":null,"properties":{"State":"South West","Region":"Bay","District":"Baidoa","Section":"Holwadag","IDP Name":"Moosan","Project":"27 ELN","Site Type":"Level 2","Latitude":"3.1309233","Longitude":"43.6385811","# Households(Hha)":120,"# Individuals":720}},
{"type":"Feature","geometry":null,"properties":{"State":"South West","Region":"Bay","District":"Baidoa","Section":"Holwadag","IDP Name":"Dhakabood","Project":"27 ELN","Site Type":"Level 2","Latitude":"3.1371201","Longitude":"43.6342973","# Households(Hha)":105,"# Individuals":630}},
{"type":"Feature","geometry":null,"properties":{"State":"South West","Region":"Bay","District":"Baidoa","Section":"Horseed","IDP Name":"Tawakal Dhayow","Project":"27 ELN","Site Type":"Level 2","Latitude":"3.1460663","Longitude":"43.6558475","# Households(Hha)":147,"# Individuals":882}},
{"type":"Feature","geometry":null,"properties":{"State":"South West","Region":"Bay","District":"Baidoa","Section":"Horseed","IDP Name":"Buula Hubey","Project":"27 ELN","Site Type":"Level 2","Latitude":"3.154801964","Longitude":"43.66261672","# Households(Hha)":85,"# Individuals":510}},
{"type":"Feature","geometry":null,"properties":{"State":"South West","Region":"Bay","District":"Baidoa","Section":"Horseed","IDP Name":"Dheriyow","Project":"27 ELN","Site Type":"Level 2","Latitude":"3.141149981","Longitude":"43.66479887","# Households(Hha)":163,"# Individuals":978}},
{"type":"Feature","geometry":null,"properties":{"State":"South West","Region":"Bay","District":"Baidoa","Section":"Horseed","IDP Name":"Buula Tinbow","Project":"27 ELN","Site Type":"Level 2","Latitude":"3.147766613","Longitude":"43.67194821","# Households(Hha)":65,"# Individuals":390}},
{"type":"Feature","geometry":null,"properties":{"State":"South West","Region":"Bay","District":"Baidoa","Section":"Holwadag","IDP Name":"Kaysiney","Project":"27 ELN","Site Type":"Level 2","Latitude":"3.1242415","Longitude":"43.6276668","# Households(Hha)":130,"# Individuals":780}},
{"type":"Feature","geometry":null,"properties":{"State":"South West","Region":"Bay","District":"Baidoa","Section":"Holwadag","IDP Name":"Roob Da'Ay","Project":"27 ELN","Site Type":"Level 2","Latitude":"3.0916328","Longitude":"43.6236413","# Households(Hha)":60,"# Individuals":360}},
{"type":"Feature","geometry":null,"properties":{"State":"South West","Region":"Bakool","District":"Xudur","Section":"Bulijadiid","IDP Name":"Bibiyow","Project":"27 ELN","Site Type":"Level 2","Latitude":"4.1196868","Longitude":"43.8976","# Households(Hha)":120,"# Individuals":720}},
{"type":"Feature","geometry":null,"properties":{"State":"South West","Region":"Bakool","District":"Xudur","Section":"Daryeel","IDP Name":"Garasweyne","Project":"27 ELN","Site Type":"Level 2","Latitude":"4.1172905","Longitude":"43.883309","# Households(Hha)":92,"# Individuals":552}},
{"type":"Feature","geometry":null,"properties":{"State":"South West","Region":"Bakool","District":"Xudur","Section":"Daryeel","IDP Name":"Elberde","Project":"27 ELN","Site Type":"Level 2","Latitude":"4.1177051","Longitude":"43.8825172","# Households(Hha)":110,"# Individuals":660}},
{"type":"Feature","geometry":null,"properties":{"State":"South West","Region":"Bakool","District":"Xudur","Section":"Daryeel","IDP Name":"Waney","Project":"27 ELN","Site Type":"Level 2","Latitude":"4.1164067","Longitude":"43.8832773","# Households(Hha)":90,"# Individuals":540}},
{"type":"Feature","geometry":null,"properties":{"State":"South West","Region":"Bakool","District":"Xudur","Section":"Daryeel","IDP Name":"Bisigle","Project":"27 ELN","Site Type":"Level 2","Latitude":"4.1145648","Longitude":"43.882365","# Households(Hha)":137,"# Individuals":822}},
{"type":"Feature","geometry":null,"properties":{"State":"South West","Region":"Bakool","District":"Xudur","Section":"Daryeel","IDP Name":"Abal","Project":"27 ELN","Site Type":"Level 2","Latitude":"4.1151331","Longitude":"43.8873934","# Households(Hha)":123,"# Individuals":738}},
{"type":"Feature","geometry":null,"properties":{"State":"South West","Region":"Bakool","District":"Xudur","Section":"Bulajadiid","IDP Name":"Gudow","Project":"27 ELN","Site Type":"Level 2","Latitude":"4.1128606","Longitude":"43.8945584","# Households(Hha)":170,"# Individuals":1020}},
{"type":"Feature","geometry":null,"properties":{"State":"South West","Region":"Lowe Shabelle","District":"Afgooye","Section":"Afgooye corridor","IDP Name":"Al-noor","Project":"27 ELN","Site Type":"Level 2","Latitude":"2.0873478","Longitude":"45.2024341","# Households(Hha)":118,"# Individuals":705}},
{"type":"Feature","geometry":null,"properties":{"State":"South West","Region":"Lowe Shabelle","District":"Afgooye","Section":"Afgooye corridor","IDP Name":"Eylo","Project":"27 ELN","Site Type":"Level 2","Latitude":"2.100731","Longitude":"45.1605797","# Households(Hha)":150,"# Individuals":900}},
{"type":"Feature","geometry":null,"properties":{"State":"South West","Region":"Lowe Shabelle","District":"Afgooye","Section":"Afgooye corridor","IDP Name":"Sedex-Buurod","Project":"27 ELN","Site Type":"Level 2","Latitude":"2.0867396","Longitude":"45.1821514","# Households(Hha)":120,"# Individuals":720}},
{"type":"Feature","geometry":null,"properties":{"State":"South West","Region":"Lowe Shabelle","District":"Afgooye","Section":"Afgooye corridor","IDP Name":"Abroone","Project":"27 ELN","Site Type":"Level 2","Latitude":"2.090974","Longitude":"45.1680333","# Households(Hha)":150,"# Individuals":900}},
{"type":"Feature","geometry":null,"properties":{"State":"South West","Region":"Lowe Shabelle","District":"Afgooye","Section":"Afgooye corridor","IDP Name":"Kusow","Project":"27 ELN","Site Type":"Level 2","Latitude":"2.1115487","Longitude":"45.1547126","# Households(Hha)":150,"# Individuals":900}},
{"type":"Feature","geometry":null,"properties":{"State":"South West","Region":"Lowe Shabelle","District":"Afgooye","Section":"Afgooye corridor","IDP Name":"Jabuuti","Project":"27 ELN","Site Type":"Level 2","Latitude":"2.1119397","Longitude":"45.1599129","# Households(Hha)":220,"# Individuals":1320}},
{"type":"Feature","geometry":null,"properties":{"State":"South West","Region":"Banadir","District":"Banadir","Section":"Kaxda","IDP Name":"Afgooye","Project":"27 ELN","Site Type":"Level 1","Latitude":"2.0489952","Longitude":"45.2571745","# Households(Hha)":370,"# Individuals":2220}},
{"type":"Feature","geometry":null,"properties":{"State":"South West","Region":"Banadir","District":"Banadir","Section":"Kaxda","IDP Name":"Al nasri","Project":"27 ELN","Site Type":"Level 1","Latitude":"2.0496595","Longitude":"45.2568886","# Households(Hha)":330,"# Individuals":1980}},
{"type":"Feature","geometry":null,"properties":{"State":"South West","Region":"Banadir","District":"Banadir","Section":"Kaxda","IDP Name":"Awbaale ","Project":"27 ELN","Site Type":"Level 1","Latitude":"2.0467185","Longitude":"45.2549048","# Households(Hha)":465,"# Individuals":2790}},
{"type":"Feature","geometry":null,"properties":{"State":"South West","Region":"Banadir","District":"Banadir","Section":"Kaxda","IDP Name":"Baslawe","Project":"27 ELN","Site Type":"Level 1","Latitude":"2.0536384","Longitude":"45.2642458","# Households(Hha)":390,"# Individuals":2340}},
{"type":"Feature","geometry":null,"properties":{"State":"South West","Region":"Banadir","District":"Banadir","Section":"Kaxda","IDP Name":"Daarow","Project":"27 ELN","Site Type":"Level 1","Latitude":"2.0500885","Longitude":"45.2631987","# Households(Hha)":180,"# Individuals":1080}},
{"type":"Feature","geometry":null,"properties":{"State":"South West","Region":"Banadir","District":"Banadir","Section":"Kaxda","IDP Name":"Derisurone","Project":"27 ELN","Site Type":"Level 1","Latitude":"2.05347","Longitude":"45.2621425","# Households(Hha)":327,"# Individuals":1962}},
{"type":"Feature","geometry":null,"properties":{"State":"South West","Region":"Banadir","District":"Banadir","Section":"Kaxda","IDP Name":"Geedole","Project":"27 ELN","Site Type":"Level 1","Latitude":"2.0485483","Longitude":"45.2582458","# Households(Hha)":670,"# Individuals":4020}},
{"type":"Feature","geometry":null,"properties":{"State":"South West","Region":"Banadir","District":"Banadir","Section":"Kaxda","IDP Name":"Hareed","Project":"27 ELN","Site Type":"Level 1","Latitude":"2.0538033","Longitude":"45.2624517","# Households(Hha)":285,"# Individuals":1710}},
{"type":"Feature","geometry":null,"properties":{"State":"South West","Region":"Banadir","District":"Banadir","Section":"Kaxda","IDP Name":"Haruun","Project":"27 ELN","Site Type":"Level 1","Latitude":"2.0501766","Longitude":"45.2548545","# Households(Hha)":210,"# Individuals":1200}},
{"type":"Feature","geometry":null,"properties":{"State":"South West","Region":"Banadir","District":"Banadir","Section":"Kaxda","IDP Name":"Hoogsade","Project":"27 ELN","Site Type":"Level 1","Latitude":"2.0510397","Longitude":"45.2683349","# Households(Hha)":180,"# Individuals":1080}},
{"type":"Feature","geometry":null,"properties":{"State":"South West","Region":"Banadir","District":"Banadir","Section":"Kaxda","IDP Name":"Horseed walalaha","Project":"27 ELN","Site Type":"Level 1","Latitude":"2.0538327","Longitude":"45.2626505","# Households(Hha)":450,"# Individuals":2700}},
{"type":"Feature","geometry":null,"properties":{"State":"South West","Region":"Banadir","District":"Banadir","Section":"Kaxda","IDP Name":"Marwo","Project":"27 ELN","Site Type":"Level 1","Latitude":"2.0528669","Longitude":"45.2679495","# Households(Hha)":120,"# Individuals":720}},
{"type":"Feature","geometry":null,"properties":{"State":"South West","Region":"Banadir","District":"Banadir","Section":"Kaxda","IDP Name":"Raha","Project":"27 ELN","Site Type":"Level 1","Latitude":"2.0517757","Longitude":"45.2603707","# Households(Hha)":400,"# Individuals":2400}},
{"type":"Feature","geometry":null,"properties":{"State":"South West","Region":"Banadir","District":"Banadir","Section":"Kaxda","IDP Name":"Rajo wanaag","Project":"27 ELN","Site Type":"Level 1","Latitude":"2.0481716","Longitude":"45.2581736","# Households(Hha)":420,"# Individuals":2520}},
{"type":"Feature","geometry":null,"properties":{"State":"South West","Region":"Banadir","District":"Banadir","Section":"Kaxda","IDP Name":"Rajo wanaag 1","Project":"27 ELN","Site Type":"Level 1","Latitude":"2.0491001","Longitude":"45.2554085","# Households(Hha)":330,"# Individuals":1980}},
{"type":"Feature","geometry":null,"properties":{"State":"South West","Region":"Banadir","District":"Banadir","Section":"Kaxda","IDP Name":"salman","Project":"27 ELN","Site Type":"Level 1","Latitude":"2.0471353","Longitude":"45.2512116","# Households(Hha)":350,"# Individuals":2100}},
{"type":"Feature","geometry":null,"properties":{"State":"South West","Region":"Banadir","District":"Banadir","Section":"Kaxda","IDP Name":"Ubax","Project":"27 ELN","Site Type":"Level 1","Latitude":"2.0510769","Longitude":"45.2682061","# Households(Hha)":395,"# Individuals":2370}},
{"type":"Feature","geometry":null,"properties":{"State":"South West","Region":"Banadir","District":"Banadir","Section":"Kaxda","IDP Name":"Yaaqle","Project":"27 ELN","Site Type":"Level 1","Latitude":"2.0506817","Longitude":"45.2570414","# Households(Hha)":425,"# Individuals":2550}},
{"type":"Feature","geometry":null,"properties":{"State":"South West","Region":"Banadir","District":"Banadir","Section":"Kaxda","IDP Name":"Zaaid","Project":"27 ELN","Site Type":"Level 1","Latitude":"2.0459127","Longitude":"45.2502634","# Households(Hha)":345,"# Individuals":2070}},
{"type":"Feature","geometry":null,"properties":{"State":"South West","Region":"Lower Shabelle","District":"Baraawe","Section":"","IDP Name":"Dheemay","Project":"27 ELN","Site Type":"Level 1","Latitude":"1.1046278","Longitude":"44.0168224","# Households(Hha)":102,"# Individuals":612}},
{"type":"Feature","geometry":null,"properties":{"State":"South West","Region":"Lower Shabelle","District":"Baraawe","Section":"","IDP Name":"Dalxiska ","Project":"27 ELN","Site Type":"Level 1","Latitude":"1.1122977","Longitude":"44.0247171","# Households(Hha)":180,"# Individuals":900}},
{"type":"Feature","geometry":null,"properties":{"State":"South West","Region":"Lower Shabelle","District":"Baraawe","Section":"","IDP Name":"Bulo Maskin","Project":"27 ELN","Site Type":"Level 1","Latitude":"1.1185056","Longitude":"44.0206914","# Households(Hha)":180,"# Individuals":1080}},
{"type":"Feature","geometry":null,"properties":{"State":"South West","Region":"Lower Shabelle","District":"Baraawe","Section":"","IDP Name":"Gegsoy","Project":"27 ELN","Site Type":"Level 1","Latitude":"1.1150881","Longitude":"44.0188912","# Households(Hha)":478,"# Individuals":2868}},
{"type":"Feature","geometry":null,"properties":{"State":"South West","Region":"Lower Shabelle","District":"Baraawe","Section":"","IDP Name":"DaaruSalaam","Project":"27 ELN","Site Type":"Level 1","Latitude":"1.1074824","Longitude":"44.0139613","# Households(Hha)":380,"# Individuals":2280}},
{"type":"Feature","geometry":null,"properties":{"State":"South West","Region":"Lower Shabelle","District":"Baraawe","Section":"","IDP Name":"Dalfur","Project":"27 ELN","Site Type":"Level 1","Latitude":"1.123616","Longitude":"44.0264087","# Households(Hha)":195,"# Individuals":1170}},
{"type":"Feature","geometry":null,"properties":{"State":"South West","Region":"Lower Shabelle","District":"Baraawe","Section":"","IDP Name":"Bulo Barwaqo","Project":"27 ELN","Site Type":"Level 1","Latitude":"1.1441136","Longitude":"44.0101944","# Households(Hha)":145,"# Individuals":870}},
{"type":"Feature","geometry":null,"properties":{"State":"South West","Region":"Lower Shabelle","District":"Baraawe","Section":"","IDP Name":"Galbeed","Project":"27 ELN","Site Type":"Level 1","Latitude":"1.1488498","Longitude":"44.0037342","# Households(Hha)":337,"# Individuals":2022}},
{"type":"Feature","geometry":null,"properties":{"State":"South West","Region":"Lower Shabelle","District":"Baraawe","Section":"","IDP Name":"Suufi Jeylani","Project":"27 ELN","Site Type":"Level 1","Latitude":"1.1469226","Longitude":"44.0066343","# Households(Hha)":275,"# Individuals":1750}},
{"type":"Feature","geometry":null,"properties":{"State":"South West","Region":"Lower Shabelle","District":"Afgooye","Section":"","IDP Name":"Hidoorow","Project":"27 ELN","Site Type":"Level 1","Latitude":"2.0933828","Longitude":"45.1756811","# Households(Hha)":195,"# Individuals":1170}},
{"type":"Feature","geometry":null,"properties":{"State":"South West","Region":"Lower Shabelle","District":"Afgooye","Section":"","IDP Name":"Deegan","Project":"27 ELN","Site Type":"Level 1","Latitude":"2.0865512","Longitude":"45.17626","# Households(Hha)":80,"# Individuals":420}},
{"type":"Feature","geometry":null,"properties":{"State":"South West","Region":"Lower Shabelle","District":"Afgooye","Section":"","IDP Name":"Buunda 1","Project":"27 ELN","Site Type":"Level 1","Latitude":"2.1108002","Longitude":"45.155001","# Households(Hha)":75,"# Individuals":450}},
{"type":"Feature","geometry":null,"properties":{"State":"South West","Region":"Lower Shabelle","District":"Afgooye","Section":"","IDP Name":"Duurow","Project":"27 ELN","Site Type":"Level 1","Latitude":"2.1124597","Longitude":"45.1536509","# Households(Hha)":120,"# Individuals":720}},
{"type":"Feature","geometry":null,"properties":{"State":"South West","Region":"Lower Shabelle","District":"Afgooye","Section":"","IDP Name":"Buundo 3","Project":"27 ELN","Site Type":"Level 1","Latitude":"2.1117208","Longitude":"45.1546198","# Households(Hha)":250,"# Individuals":1500}},
{"type":"Feature","geometry":null,"properties":{"State":"South West","Region":"Lower Shabelle","District":"Afgooye","Section":"","IDP Name":"Qodqodow","Project":"27 ELN","Site Type":"Level 1","Latitude":"2.1146287","Longitude":"45.1563206","# Households(Hha)":137,"# Individuals":822}},
{"type":"Feature","geometry":null,"properties":{"State":"South West","Region":"Lower Shabelle","District":"Afgooye","Section":"","IDP Name":"Aruurisho","Project":"27 ELN","Site Type":"Level 1","Latitude":"2.1093921","Longitude":"45.1543571","# Households(Hha)":168,"# Individuals":1008}},
{"type":"Feature","geometry":null,"properties":{"State":"Somaliland","Region":"Togdheer","District":"Buuhoodle","Section":"Maroodijeex","IDP Name":"Maroodijeex Idp","Project":"27 FMM","Site Type":"Batch 1","Latitude":"8.417321533","Longitude":"46.38789937","# Households(Hha)":150,"# Individuals":900}},
{"type":"Feature","geometry":null,"properties":{"State":"Somaliland","Region":"Togdheer","District":"Buuhoodle","Section":"Meygaagle","IDP Name":"Meygaagle Idp","Project":"27 FMM","Site Type":"Batch 1","Latitude":"8.472198667","Longitude":"46.2925074","# Households(Hha)":225,"# Individuals":1600}},
{"type":"Feature","geometry":null,"properties":{"State":"Somaliland","Region":"Togdheer","District":"Buuhoodle","Section":"Gocondhaale","IDP Name":"Gocondhaale Idp","Project":"27 FMM","Site Type":"Batch 1","Latitude":"8.553547533","Longitude":"46.22472083","# Households(Hha)":500,"# Individuals":2000}},
{"type":"Feature","geometry":null,"properties":{"State":"Somaliland","Region":"Togdheer","District":"Buuhoodle","Section":"Shangale","IDP Name":"Shangale Idp","Project":"27 FMM","Site Type":"Batch 1","Latitude":"8.285605767","Longitude":"46.31530017","# Households(Hha)":1000,"# Individuals":6000}},
{"type":"Feature","geometry":null,"properties":{"State":"Somaliland","Region":"Togdheer","District":"Buuhoodle","Section":"Sool Joogto","IDP Name":"Sool Joogto","Project":"27 FMM","Site Type":"Batch 1","Latitude":"8.666849","Longitude":"46.21516293","# Households(Hha)":34,"# Individuals":204}},
{"type":"Feature","geometry":null,"properties":{"State":"Somaliland","Region":"Togdheer","District":"Buuhoodle","Section":"Tog Barwaaqo","IDP Name":"Tog Barwaaqo Idp","Project":"27 FMM","Site Type":"Batch 1","Latitude":"8.515285","Longitude":"46.34162963","# Households(Hha)":100,"# Individuals":500}},
{"type":"Feature","geometry":null,"properties":{"State":"Somaliland","Region":"Sool","District":"Laas Caanood","Section":"Higlada","IDP Name":"Higlada","Project":"27 FMM","Site Type":"Batch 1","Latitude":"8.55572451","Longitude":"47.70893255","# Households(Hha)":150,"# Individuals":900}},
{"type":"Feature","geometry":null,"properties":{"State":"Somaliland","Region":"Sool","District":"Laas Caanood","Section":"Tukaraq","IDP Name":"Tukaraq","Project":"27 FMM","Site Type":"Batch 1","Latitude":"8.539744503","Longitude":"47.79028276","# Households(Hha)":400,"# Individuals":4200}},
{"type":"Feature","geometry":null,"properties":{"State":"Somaliland","Region":"Sool","District":"Laas Caanood","Section":"karin Karfood","IDP Name":"karin Karfood","Project":"27 FMM","Site Type":"Batch 1","Latitude":"8.120678226","Longitude":"47.73810173","# Households(Hha)":1700,"# Individuals":10200}},
{"type":"Feature","geometry":null,"properties":{"State":"Somaliland","Region":"Sool","District":"Laas Caanood","Section":"Qoriley","IDP Name":"Qoriley","Project":"27 FMM","Site Type":"Batch 1","Latitude":"8.010168562","Longitude":"47.56539757","# Households(Hha)":600,"# Individuals":3600}},
{"type":"Feature","geometry":null,"properties":{"State":"Somaliland","Region":"Sool","District":"Laas Caanood","Section":"Dan","IDP Name":"Dan","Project":"27 FMM","Site Type":"Batch 1","Latitude":"8.157267485","Longitude":"47.68845397","# Households(Hha)":500,"# Individuals":4200}},
{"type":"Feature","geometry":null,"properties":{"State":"Somaliland","Region":"Sool","District":"Laas Caanood","Section":"God Qaboobe","IDP Name":"God Qaboobe","Project":"27 FMM","Site Type":"Batch 1","Latitude":"8.53584444","Longitude":"47.82766667","# Households(Hha)":200,"# Individuals":1200}},
{"type":"Feature","geometry":null,"properties":{"State":"Somaliland","Region":"Sool","District":"Laas Caanood","Section":"Boocame","IDP Name":"Boocame","Project":"27 FMM","Site Type":"Batch 1","Latitude":"8.395195734","Longitude":"47.93207277","# Households(Hha)":5500,"# Individuals":33000}},
{"type":"Feature","geometry":null,"properties":{"State":"Somaliland","Region":"Sool","District":"Laas Caanood","Section":"Karin-dabaylweyn","IDP Name":"Karin-dabaylweyn","Project":"27 FMM","Site Type":"Batch 1","Latitude":"8.111614523","Longitude":"47.5512278","# Households(Hha)":800,"# Individuals":4600}},
{"type":"Feature","geometry":null,"properties":{"State":"Somaliland","Region":"Sool","District":"Laas Caanood","Section":"Falidhyaale","IDP Name":"Falidhyaale","Project":"27 FMM","Site Type":"Batch 1","Latitude":"8.542060207","Longitude":"48.0339733","# Households(Hha)":600,"# Individuals":3600}},
{"type":"Feature","geometry":null,"properties":{"State":"Somaliland","Region":"Sool","District":"Laas Caanood","Section":"Dhabansaar","IDP Name":"Dhabansaar","Project":"27 FMM","Site Type":"Batch 1","Latitude":"","Longitude":"","# Households(Hha)":375,"# Individuals":2250}},
{"type":"Feature","geometry":null,"properties":{"State":"Somaliland","Region":"Sool","District":"Laas Caanood","Section":"Maraaley","IDP Name":"Maraaley","Project":"27 FMM","Site Type":"Batch 1","Latitude":"8.144137555","Longitude":"47.01205667","# Households(Hha)":270,"# Individuals":1400}}
]}